<?xml version="1.0" encoding="UTF-8" ?>
    <manifest>
    <version major="0" minor="1"/>
    <registry>
       <item key="C3_HeightMeshBaseURL" value="http://invalid.server/tile?style=17" />
       <item key="USE_APPLE_HEIGHT_MESH" value="true" />
       <item key="C3_DigitalGlobeBaseURL" value="http://invalid.server/tile?style=7" />
       <item key="USE_APPLE_DG" value="true" />
       <item key="C3_HeightMeshExtension" value="dtm" />
    </registry>
    <triggers>
    <trigger>
       <data type="c3mesh" metaurlformat="c3h" metaurl="bundle://poles/northpole/0/0/map_0_0_0.c3h" dataurl="bundle://poles/northpole/"/>
       <shape type="sphere" latitude="1.570796326" longitude="0" altitude="0.0" radius="600000"/>
       <c3meshdata level="0"/>
    </trigger>
    <trigger>
       <data type="c3mesh" metaurlformat="c3h" metaurl="bundle://poles/southpole/0/0/map_0_0_0.c3h" dataurl="bundle://poles/southpole/"/>
       <shape type="sphere" latitude="-1.570796326" longitude="0" altitude="0.0" radius="600000"/>
       <c3meshdata level="0"/>
    </trigger>
      <trigger region="0" source="muid" type="tour">
<tour muid="4531368219218016530" region="3" trip_nr="1"/>
<tour muid="18267247705734155774" region="3" trip_nr="2"/>
<tour muid="12816273645922594547" region="3" trip_nr="4"/>
<tour muid="1252269331730788847" region="3" trip_nr="5"/>
<tour muid="17815381457770473724" region="3" trip_nr="7"/>
<tour muid="16118442400621678012" region="4" trip_nr="1"/>
<tour muid="18351802482921338004" region="5" trip_nr="1"/>
<tour muid="9827672953111667929" region="6" trip_nr="1"/>
<tour muid="17716882381624000226" region="7" trip_nr="1"/>
<tour muid="5156993033163333898" region="8" trip_nr="1"/>
<tour muid="3687881869269928947" region="8" trip_nr="3"/>
<tour muid="7363214711951792140" region="8" trip_nr="4"/>
<tour muid="826388732277615336" region="9" trip_nr="1"/>
<tour muid="13089913346109115933" region="10" trip_nr="1"/>
<tour muid="1555780455406929851" region="11" trip_nr="1"/>
<tour muid="10054958827085458304" region="12" trip_nr="1"/>
<tour muid="14312029616879295979" region="13" trip_nr="1"/>
<tour muid="12296432638622813584" region="14" trip_nr="1"/>
<tour muid="3440579616580864183" region="15" trip_nr="1"/>
<tour muid="12675902928086892573" region="18" trip_nr="1"/>
<tour muid="16203288942527217028" region="20" trip_nr="1"/>
<tour muid="939915697144155458" region="21" trip_nr="1"/>
<tour muid="10582673622727249855" region="22" trip_nr="1"/>
<tour muid="5925973303254515509" region="23" trip_nr="1"/>
<tour muid="5377375150887084436" region="24" trip_nr="1"/>
<tour muid="48812406309286022" region="25" trip_nr="1"/>
<tour muid="13477259445584775045" region="26" trip_nr="1"/>
<tour muid="1084258854859257940" region="27" trip_nr="2"/>
<tour muid="1923054741885536953" region="28" trip_nr="1"/>
<tour muid="15943796160287482500" region="30" trip_nr="1"/>
<tour muid="7425715785066774029" region="31" trip_nr="1"/>
<tour muid="4111137726369867804" region="32" trip_nr="1"/>
<tour muid="15177879952840134189" region="34" trip_nr="1"/>
<tour muid="838102623566003472" region="35" trip_nr="1"/>
<tour muid="1138584149477506247" region="36" trip_nr="1"/>
<tour muid="12941259929371403703" region="37" trip_nr="1"/>
<tour muid="8824590892442150586" region="38" trip_nr="1"/>
<tour muid="2086513722180094030" region="39" trip_nr="4"/>
<tour muid="956583181066512579" region="39" trip_nr="5"/>
<tour muid="17562417132368762792" region="40" trip_nr="1"/>
<tour muid="16982852142975855178" region="41" trip_nr="1"/>
<tour muid="7930616081523413639" region="42" trip_nr="1"/>
<tour muid="16056873924796211948" region="43" trip_nr="1"/>
<tour muid="10276109485276657318" region="44" trip_nr="1"/>
<tour muid="3350311536626935624" region="45" trip_nr="1"/>
<tour muid="7610876732946825007" region="46" trip_nr="1"/>
<tour muid="10819483050482422353" region="47" trip_nr="1"/>
<tour muid="263266650859038700" region="48" trip_nr="1"/>
<tour muid="16051914886803358345" region="49" trip_nr="1"/>
<tour muid="7017433214542421879" region="50" trip_nr="1"/>
<tour muid="13355050428234550893" region="51" trip_nr="1"/>
<tour muid="979111587819792635" region="52" trip_nr="1"/>
<tour muid="1962854081627882392" region="53" trip_nr="1"/>
<tour muid="10636348642042130234" region="54" trip_nr="1"/>
<tour muid="4380678904066482757" region="55" trip_nr="1"/>
<tour muid="4322731065454946974" region="56" trip_nr="1"/>
<tour muid="433923045843580328" region="57" trip_nr="1"/>
<tour muid="17961326294864566958" region="58" trip_nr="1"/>
<tour muid="8168888130870178146" region="59" trip_nr="1"/>
<tour muid="14555664115510285332" region="60" trip_nr="1"/>
<tour muid="10217020895339422721" region="61" trip_nr="1"/>
<tour muid="5879528052908283910" region="61" trip_nr="2"/>
<tour muid="9748428763607186578" region="62" trip_nr="1"/>
<tour muid="8298736516934528107" region="63" trip_nr="1"/>
<tour muid="4863379879225207845" region="64" trip_nr="1"/>
<tour muid="11358500272589468296" region="65" trip_nr="1"/>
<tour muid="17533872310363701785" region="70" trip_nr="1"/>
<tour muid="7632174774306439728" region="76" trip_nr="1"/>
<tour muid="12832987102699356848" region="79" trip_nr="1"/>
<tour muid="17534611013500265927" region="84" trip_nr="1"/>
<tour muid="16665842614037863449" region="85" trip_nr="1"/>
<tour muid="14876705528545631813" region="89" trip_nr="1"/>
<tour muid="13766066201605095463" region="90" trip_nr="1"/>
<tour muid="11223442288798665119" region="91" trip_nr="1"/>
<tour muid="12559581092183205117" region="92" trip_nr="1"/>
<tour muid="10989441033118628785" region="93" trip_nr="1"/>
<tour muid="166748441558776196" region="94" trip_nr="1"/>
<tour muid="17585342063623108660" region="95" trip_nr="1"/>
<tour muid="181241619967018963" region="98" trip_nr="1"/>
<tour muid="1201037006660368187" region="100" trip_nr="1"/>
<tour muid="3736367690346046006" region="101" trip_nr="1"/>
<tour muid="5982113603036670760" region="102" trip_nr="1"/>
<tour muid="11027662476521880776" region="112" trip_nr="1"/>
<tour muid="2836612203710945376" region="121" trip_nr="2"/>
<tour muid="10834052015003554621" region="122" trip_nr="1"/>
<tour muid="1657240865468337132" region="123" trip_nr="1"/>
<tour muid="11705452622996711810" region="123" trip_nr="2"/>
<tour muid="10007159781967066248" region="124" trip_nr="1"/>
<tour muid="13593491077831154743" region="125" trip_nr="1"/>
<tour muid="6339979079197982280" region="126" trip_nr="1"/>
<tour muid="14299383283173974519" region="127" trip_nr="2"/>
<tour muid="3593621544935888821" region="128" trip_nr="1"/>
<tour muid="1448747991410031826" region="129" trip_nr="4"/>
<tour muid="13203738336442626179" region="130" trip_nr="1"/>
<tour muid="1254896392585842234" region="131" trip_nr="1"/>
<tour muid="17809396332536151873" region="132" trip_nr="1"/>
<tour muid="3805936806795206027" region="133" trip_nr="1"/>
<tour muid="6766377555704410494" region="134" trip_nr="1"/>
<tour muid="27660252541371166" region="135" trip_nr="1"/>
<tour muid="3825137545888743813" region="136" trip_nr="1"/>
<tour muid="10243054557490427785" region="137" trip_nr="1"/>
<tour muid="9300771619197868012" region="138" trip_nr="1"/>
<tour muid="10426739477111840775" region="139" trip_nr="1"/>
<tour muid="479996818328362967" region="140" trip_nr="1"/>
<tour muid="10597376951450673405" region="142" trip_nr="1"/>
<tour muid="8504007752951036309" region="142" trip_nr="2"/>
<tour muid="16220185465734774872" region="142" trip_nr="3"/>
<tour muid="9043089734324765761" region="142" trip_nr="5"/>
<tour muid="3862359936957195812" region="143" trip_nr="1"/>
<tour muid="1864426592993979936" region="146" trip_nr="1"/>
<tour muid="1783426121075392188" region="146" trip_nr="2"/>
<tour muid="4188381435873284301" region="146" trip_nr="3"/>
<tour muid="16947639284024502318" region="147" trip_nr="1"/>
<tour muid="8696757491618441500" region="148" trip_nr="1"/>
<tour muid="8723649770558302171" region="149" trip_nr="1"/>
<tour muid="6653038168936504289" region="150" trip_nr="1"/>
<tour muid="3023693721548392318" region="152" trip_nr="1"/>
<tour muid="15936499613849172010" region="153" trip_nr="1"/>
<tour muid="13599232349913208859" region="154" trip_nr="1"/>
<tour muid="18166503836206534180" region="155" trip_nr="1"/>
<tour muid="5695414336077017831" region="156" trip_nr="1"/>
<tour muid="4026493169844397369" region="157" trip_nr="1"/>
<tour muid="9591671158184785756" region="159" trip_nr="2"/>
<tour muid="11757842225833683258" region="161" trip_nr="1"/>
<tour muid="108878363312483308" region="162" trip_nr="1"/>
<tour muid="6822996247843383003" region="164" trip_nr="1"/>
<tour muid="3186167793864416418" region="165" trip_nr="1"/>
<tour muid="7389299458915563065" region="166" trip_nr="1"/>
<tour muid="16378064303531491359" region="167" trip_nr="1"/>
<tour muid="5356750251419916376" region="168" trip_nr="1"/>
<tour muid="10217619339682766087" region="169" trip_nr="1"/>
<tour muid="3042355984092737120" region="170" trip_nr="1"/>
<tour muid="15387457767204192270" region="172" trip_nr="1"/>
<tour muid="14334130669715821850" region="173" trip_nr="1"/>
<tour muid="17078657519753339873" region="174" trip_nr="1"/>
<tour muid="15348567109487074083" region="176" trip_nr="2"/>
<tour muid="2362394384104145791" region="177" trip_nr="1"/>
<tour muid="5415870432459090115" region="178" trip_nr="2"/>
<tour muid="8981903105627648706" region="179" trip_nr="1"/>
<tour muid="12971930919948114574" region="180" trip_nr="1"/>
<tour muid="8549566100449150828" region="181" trip_nr="2"/>
<tour muid="5627635705415405204" region="183" trip_nr="1"/>
<tour muid="2637307425486635150" region="184" trip_nr="1"/>
<tour muid="15051783534270808580" region="185" trip_nr="1"/>
<tour muid="17157451707140922115" region="186" trip_nr="1"/>
<tour muid="14902544525374866110" region="186" trip_nr="2"/>
<tour muid="14026103835638880386" region="186" trip_nr="3"/>
<tour muid="11550749535564629273" region="186" trip_nr="4"/>
<tour muid="2455386554669290555" region="187" trip_nr="1"/>
<tour muid="2671917781028842669" region="188" trip_nr="1"/>
<tour muid="12547197178237557289" region="190" trip_nr="1"/>
<tour muid="109415892660401545" region="191" trip_nr="1"/>
<tour muid="1730761825744140660" region="192" trip_nr="1"/>
<tour muid="7080894099788651664" region="194" trip_nr="1"/>
<tour muid="4645410604957761465" region="196" trip_nr="1"/>
<tour muid="1550108269566654669" region="197" trip_nr="1"/>
<tour muid="653728938125637158" region="198" trip_nr="1"/>
<tour muid="12166846814157510155" region="200" trip_nr="2"/>
<tour muid="13121532693308183762" region="201" trip_nr="3"/>
<tour muid="15684075702847234165" region="202" trip_nr="1"/>
<tour muid="939376819716483220" region="203" trip_nr="1"/>
<tour muid="7161061740441158998" region="204" trip_nr="1"/>
<tour muid="3821320560347420979" region="209" trip_nr="1"/>
<tour muid="13917510473036574148" region="210" trip_nr="1"/>
<tour muid="15106958759245075468" region="212" trip_nr="1"/>
<tour muid="17718587852243718511" region="213" trip_nr="1"/>
<tour muid="15319878102305612304" region="214" trip_nr="1"/>
<tour muid="17340241788652778055" region="215" trip_nr="1"/>
<tour muid="3263246046732661117" region="216" trip_nr="1"/>
<tour muid="5550958171262495753" region="217" trip_nr="1"/>
<tour muid="64781293886789942" region="218" trip_nr="1"/>
<tour muid="11022247688110894040" region="219" trip_nr="1"/>
<tour muid="9522105926885507641" region="221" trip_nr="1"/>
<tour muid="4474160571646378435" region="224" trip_nr="1"/>
<tour muid="7443125053158619445" region="225" trip_nr="1"/>
<tour muid="14982767098915094410" region="226" trip_nr="1"/>
<tour muid="14346626633831640548" region="227" trip_nr="1"/>
<tour muid="11954645711863548461" region="228" trip_nr="1"/>
<tour muid="1917760255604844754" region="230" trip_nr="1"/>
<tour muid="7174127786053218176" region="231" trip_nr="1"/>
<tour muid="10207552580504402919" region="235" trip_nr="1"/>
<tour muid="11853900249977351815" region="236" trip_nr="2"/>
<tour muid="12416200370808769271" region="238" trip_nr="1"/>
<tour muid="10396727440027287230" region="239" trip_nr="3"/>
<tour muid="15065990396398085053" region="245" trip_nr="4"/>
<tour muid="5098583724446589706" region="248" trip_nr="1"/>
<tour muid="7245408206608384073" region="250" trip_nr="1"/>
<tour muid="1308114774394222822" region="253" trip_nr="2"/>
<tour muid="7800235839290186042" region="254" trip_nr="1"/>
<tour muid="8855644188444705678" region="256" trip_nr="1"/>
<tour muid="10300781693681504922" region="257" trip_nr="2"/>
<tour muid="7548476917611596418" region="258" trip_nr="3"/>
<tour muid="8612873130253789505" region="259" trip_nr="4"/>
<tour muid="1101416310109479055" region="260" trip_nr="1"/>
<tour muid="4372758932278067216" region="261" trip_nr="1"/>
<tour muid="17647392294282777829" region="301" trip_nr="1"/>
<tour muid="349735588948414944" region="302" trip_nr="1"/>
<tour muid="11490485547023050262" region="303" trip_nr="1"/>
<tour muid="10288935307443385648" region="307" trip_nr="1"/>
<tour muid="3935937233959773701" region="308" trip_nr="1"/>
<tour muid="11437451221664086004" region="310" trip_nr="1"/>
<tour muid="14724134909503468520" region="311" trip_nr="1"/>
<tour muid="6270965684979469161" region="312" trip_nr="1"/>
<tour muid="5828785849863551768" region="314" trip_nr="1"/>
<tour muid="13773826528165426523" region="315" trip_nr="1"/>
<tour muid="8322740022098429141" region="316" trip_nr="1"/>
<tour muid="8812774966958307911" region="318" trip_nr="1"/>
<tour muid="3416750126868573578" region="319" trip_nr="1"/>
<tour muid="978077699355992154" region="321" trip_nr="1"/>
<tour muid="2706398910465317096" region="322" trip_nr="1"/>
<tour muid="1806782356378717978" region="325" trip_nr="1"/>
<tour muid="7146282285162682551" region="326" trip_nr="1"/>
<tour muid="4492634398381644871" region="328" trip_nr="1"/>
<tour muid="1569885543680666621" region="329" trip_nr="1"/>
<tour muid="3770995219519495167" region="329" trip_nr="2"/>
<tour muid="547610148360095909" region="330" trip_nr="1"/>
<tour muid="9013106477465071401" region="331" trip_nr="1"/>
<tour muid="16556679228086917043" region="333" trip_nr="1"/>
<tour muid="2641322997806615858" region="334" trip_nr="1"/>
<tour muid="10627087003611190473" region="335" trip_nr="1"/>
<tour muid="582633321019861587" region="337" trip_nr="1"/>
<tour muid="7265977611784414889" region="338" trip_nr="1"/>
<tour muid="13541657359831175678" region="339" trip_nr="1"/>
<tour muid="4097451613563615121" region="339" trip_nr="4"/>
<tour muid="10009959424152459646" region="340" trip_nr="1"/>
<tour muid="3403324996610581813" region="341" trip_nr="1"/>
<tour muid="17412664260382322216" region="346" trip_nr="1"/>
<tour muid="8239314056883855385" region="347" trip_nr="1"/>
<tour muid="15645972062343624775" region="347" trip_nr="2"/>
<tour muid="156990606399930506" region="347" trip_nr="3"/>
<tour muid="1610283930788662247" region="352" trip_nr="1"/>
<tour muid="13771518806306306887" region="353" trip_nr="1"/>
<tour muid="82501360114008559" region="354" trip_nr="1"/>
<tour muid="14041607190315785392" region="355" trip_nr="1"/>
<tour muid="10206127390910122038" region="356" trip_nr="1"/>
<tour muid="17435307972198885500" region="357" trip_nr="1"/>
<tour muid="10834057153690288214" region="359" trip_nr="1"/>
<tour muid="5052193609128172787" region="360" trip_nr="1"/>
<tour muid="13680298566908653853" region="361" trip_nr="2"/>
<tour muid="17599667515828277377" region="362" trip_nr="1"/>
<tour muid="7318629972382961775" region="363" trip_nr="1"/>
<tour muid="13250385940106378147" region="364" trip_nr="1"/>
<tour muid="12369234901565091181" region="366" trip_nr="1"/>
<tour muid="6190102315307023311" region="367" trip_nr="1"/>
<tour muid="4307223784988295524" region="368" trip_nr="1"/>
<tour muid="14373099561496939138" region="369" trip_nr="1"/>
<tour muid="15614830348002797947" region="371" trip_nr="1"/>
<tour muid="9660704478308868104" region="372" trip_nr="1"/>
<tour muid="6200525386913362582" region="373" trip_nr="1"/>
<tour muid="14417234486740159454" region="374" trip_nr="1"/>
<tour muid="12078655853372449173" region="375" trip_nr="1"/>
<tour muid="15415848286461359788" region="376" trip_nr="1"/>
<tour muid="1963064472107843209" region="378" trip_nr="1"/>
<tour muid="13950070109701896724" region="380" trip_nr="1"/>
<tour muid="5341941577109385904" region="382" trip_nr="1"/>
<tour muid="13676828494144378531" region="385" trip_nr="1"/>
<tour muid="2779437493374006634" region="386" trip_nr="1"/>
<tour muid="8599589526738487816" region="387" trip_nr="1"/>
<tour muid="4293289448269518509" region="387" trip_nr="2"/>
<tour muid="2366849399513986610" region="387" trip_nr="3"/>
<tour muid="616261824390785464" region="388" trip_nr="1"/>
<tour muid="1337584259675252487" region="389" trip_nr="1"/>
<tour muid="908026320369065846" region="390" trip_nr="1"/>
<tour muid="4907825406724247717" region="392" trip_nr="1"/>
<tour muid="12710632958545092958" region="393" trip_nr="1"/>
<tour muid="9801274209915293866" region="394" trip_nr="2"/>
<tour muid="8225646069407684590" region="395" trip_nr="5"/>
<tour muid="531955713081365847" region="396" trip_nr="1"/>
<tour muid="9355127290128212996" region="397" trip_nr="2"/>
<tour muid="14197691933169113851" region="398" trip_nr="1"/>
<tour muid="5557408872625320118" region="399" trip_nr="2"/>
<tour muid="15041451746917232606" region="400" trip_nr="2"/>
<tour muid="14927954969167210429" region="401" trip_nr="1"/>
<tour muid="667552995761122057" region="403" trip_nr="2"/>
<tour muid="13450167078830067391" region="404" trip_nr="2"/>
<tour muid="1999266205532059561" region="405" trip_nr="2"/>
<tour muid="14411146948764821426" region="406" trip_nr="2"/>
<tour muid="1562053543834220107" region="407" trip_nr="1"/>
<tour muid="1092074926538308132" region="602" trip_nr="3"/>
<tour muid="8681440808912264921" region="603" trip_nr="2"/>
<tour muid="15524397317295848648" region="604" trip_nr="1"/>
<tour muid="11633414177404047544" region="605" trip_nr="1"/>
<tour muid="7308054412880197866" region="606" trip_nr="1"/>
<tour muid="5161046090556624916" region="607" trip_nr="1"/>
<tour muid="16900700893249087509" region="608" trip_nr="1"/>
<tour muid="8898197704513509369" region="609" trip_nr="1"/>
<tour muid="10797775320496507179" region="610" trip_nr="1"/>
<tour muid="1686134952642924784" region="611" trip_nr="1"/>
<tour muid="10826018148708172650" region="612" trip_nr="1"/>
<tour muid="12896789262269199865" region="614" trip_nr="1"/>
<tour muid="14217483865491244117" region="616" trip_nr="1"/>
<tour muid="8091591328533552145" region="619" trip_nr="1"/>
<tour muid="13961666218927713520" region="620" trip_nr="1"/>
<tour muid="10890854623215406114" region="621" trip_nr="1"/>
<tour muid="9897313056412695334" region="622" trip_nr="1"/>
<tour muid="17125558682472954225" region="625" trip_nr="1"/>
<tour muid="15860572502898442269" region="628" trip_nr="1"/>
<tour muid="15943540620212624422" region="629" trip_nr="1"/>
<tour muid="1404646146585592635" region="630" trip_nr="2"/>
<tour muid="199352666106590166" region="631" trip_nr="1"/>
<tour muid="10550311028877856594" region="632" trip_nr="1"/>
<tour muid="4619147776260750636" region="633" trip_nr="1"/>
<tour muid="730262353082625686" region="634" trip_nr="1"/>
<tour muid="3610814825381651184" region="635" trip_nr="1"/>
<tour muid="8120520380810637311" region="636" trip_nr="1"/>
<tour muid="4520795754052746685" region="703" trip_nr="1"/>
<tour muid="14708838567183056555" region="704" trip_nr="2"/>
<tour muid="13143767523890972758" region="705" trip_nr="1"/>
<tour muid="14098239834009253999" region="705" trip_nr="2"/>
<tour muid="12848318698154823511" region="706" trip_nr="1"/>
<tour muid="14121435948563729963" region="707" trip_nr="1"/>
<tour muid="1072684567563103985" region="709" trip_nr="1"/>
<tour muid="11759626348066911317" region="710" trip_nr="1"/>
<tour muid="84524253937441006" region="714" trip_nr="3"/>
<tour muid="553116303990390206" region="715" trip_nr="1"/>
<tour muid="14380146054263947148" region="716" trip_nr="1"/>
<tour muid="17998789046295763001" region="718" trip_nr="1"/>
<tour muid="5078037397291873884" region="719" trip_nr="1"/>
<tour muid="1611896656714842026" region="721" trip_nr="1"/>
<tour muid="16978105287647533389" region="722" trip_nr="1"/>
<tour muid="14297233909692956576" region="724" trip_nr="1"/>
<tour muid="2269230866778707906" region="725" trip_nr="1"/>
<tour muid="12906775273055969477" region="726" trip_nr="1"/>
<tour muid="15636450544773634559" region="729" trip_nr="1"/>
<tour muid="16843456025787856450" region="729" trip_nr="2"/>
<tour muid="15682024884446247663" region="730" trip_nr="1"/>
<tour muid="2575796294998251926" region="731" trip_nr="1"/>
<tour muid="12802315609559235400" region="732" trip_nr="1"/>
<tour muid="1313036984739401626" region="733" trip_nr="1"/>
<tour muid="15173937255329563168" region="735" trip_nr="1"/>
<tour muid="9096586843306741758" region="736" trip_nr="1"/>
<tour muid="176940327313935749" region="738" trip_nr="1"/>
<tour muid="12241215525922646166" region="739" trip_nr="3"/>
<tour muid="12973538532323680141" region="741" trip_nr="3"/>
<tour muid="16878058406855682980" region="742" trip_nr="1"/>
</trigger>
<trigger altitude="-9217.4" latitude="0.591458672148" level="13" longitude="-2.058323669200" max_level="20" maxsize_13="83163" maxsize_14="109954" maxsize_15="105972" maxsize_16="143539" maxsize_17="143210" maxsize_18="128978" maxsize_19="100179" maxsize_20="87077" meta_levels="0 13" meta_region="13 4900 1389 30 46" meta_zmax="16 20" name="Los Angeles" priority="0" radius="111026.8" region="3" version="1015" />
<trigger altitude="2037.6" latitude="-0.590931509500" level="13" longitude="2.636820288454" max_level="20" maxsize_13="90870" maxsize_14="134929" maxsize_15="117219" maxsize_16="120334" maxsize_17="157600" maxsize_18="110186" maxsize_19="105598" maxsize_20="103253" name="Sydney" priority="0" radius="34799.7" region="4" version="1018" />
<trigger altitude="-65.3" latitude="0.795022649117" level="13" longitude="-1.285780624219" max_level="20" maxsize_13="63982" maxsize_14="105284" maxsize_15="104299" maxsize_16="106078" maxsize_17="129425" maxsize_18="112983" maxsize_19="102003" maxsize_20="86302" name="Montreal" priority="0" radius="48187.7" region="5" version="1023" />
<trigger altitude="-893.2" latitude="0.674673680881" level="13" longitude="-2.116990446280" max_level="20" maxsize_13="50622" maxsize_14="98128" maxsize_15="99103" maxsize_16="124622" maxsize_17="122915" maxsize_18="111929" maxsize_19="103149" maxsize_20="94809" meta_levels="0 13" meta_region="13 5042 1327 18 18" meta_zmax="16 20" name="Sacramento" priority="0" radius="46701.9" region="6" version="1004" />
<trigger altitude="3279.1" latitude="0.828944857415" level="13" longitude="-2.135364628729" max_level="20" maxsize_13="103715" maxsize_14="143287" maxsize_15="128130" maxsize_16="122617" maxsize_17="209065" maxsize_18="175397" maxsize_19="161338" maxsize_20="141669" name="Seattle" priority="0" radius="66769.2" region="7" version="1007" />
<trigger altitude="-432.3" latitude="0.454395241677" level="13" longitude="-1.401570960030" max_level="20" maxsize_13="81244" maxsize_14="98695" maxsize_15="97331" maxsize_16="127916" maxsize_17="148196" maxsize_18="128511" maxsize_19="110619" maxsize_20="95936" meta_levels="0 13" meta_region="13 4693 2262 34 13" meta_zmax="16 20" name="Miami" priority="0" radius="80680.8" region="8" version="1009" />
<trigger altitude="6729.1" latitude="0.632126522331" level="13" longitude="-2.004480344630" max_level="20" maxsize_13="97255" maxsize_14="94835" maxsize_15="106128" maxsize_16="114040" maxsize_17="108906" maxsize_18="109937" maxsize_19="111611" maxsize_20="105819" meta_levels="0 13" meta_region="13 4970 1467 25 28" meta_zmax="16 20" name="Las Vegas" priority="0" radius="75815.4" region="9" version="1037" />
<trigger altitude="-880.8" latitude="-0.660828435901" level="13" longitude="2.530433807577" max_level="20" maxsize_13="108920" maxsize_14="115712" maxsize_15="98379" maxsize_16="111908" maxsize_17="106150" maxsize_18="100937" maxsize_19="98816" maxsize_20="79621" meta_levels="0 13" meta_region="13 3157 7388 14 13" meta_zmax="16 20" name="Melbourne" priority="0" radius="38737.6" region="10" version="1021" />
<trigger altitude="-286.6" latitude="0.730228604941" level="13" longitude="0.217461326559" max_level="20" maxsize_13="100991" maxsize_14="124553" maxsize_15="125258" maxsize_16="115942" maxsize_17="110726" maxsize_18="101357" maxsize_19="96363" maxsize_20="79066" meta_levels="0 13" meta_region="13 5140 4373 12 13" meta_zmax="16 20" name="rome" priority="0" radius="33672.8" region="11" version="1013" />
<trigger altitude="-951.4" latitude="0.915947721193" level="13" longitude="0.233384700915" max_level="20" maxsize_13="63291" maxsize_14="90951" maxsize_15="81906" maxsize_16="123713" maxsize_17="118242" maxsize_18="108953" maxsize_19="99505" maxsize_20="91211" meta_levels="0 13" meta_region="13 5494 4390 19 19" meta_zmax="16 20" name="berlin" priority="0" radius="42275.5" region="12" version="1009" />
<trigger altitude="841.5" latitude="0.704737564068" level="13" longitude="-0.065224175100" max_level="20" maxsize_13="88110" maxsize_14="114263" maxsize_15="119998" maxsize_16="123622" maxsize_17="107683" maxsize_18="103404" maxsize_19="94543" maxsize_20="108971" name="madrid" priority="0" radius="24165.1" region="13" version="1018" />
<trigger altitude="859.3" latitude="0.974107723626" level="13" longitude="0.220986120319" max_level="20" maxsize_13="57305" maxsize_14="57813" maxsize_15="84914" maxsize_16="113730" maxsize_17="103470" maxsize_18="115914" maxsize_19="97004" maxsize_20="88431" meta_levels="0 13" meta_region="13 5621 4367 26 32" meta_zmax="16 20" name="Copenhagen" priority="0" radius="56883.7" region="14" version="1019" />
<trigger altitude="2512.3" latitude="1.038119008466" level="13" longitude="0.313256056758" max_level="20" maxsize_13="64436" maxsize_14="64216" maxsize_15="56048" maxsize_16="112311" maxsize_17="108080" maxsize_18="100035" maxsize_19="98877" maxsize_20="82573" meta_levels="0 13" meta_region="13 5773 4494 37 22" meta_zmax="16 20" name="stockholm" priority="0" radius="58794.8" region="15" version="1039" />
<trigger altitude="-219.3" latitude="0.526116950436" level="13" longitude="-1.572329147187" max_level="20" maxsize_13="89099" maxsize_14="99260" maxsize_15="107470" maxsize_16="154795" maxsize_17="143728" maxsize_18="129535" maxsize_19="115350" maxsize_20="106654" meta_levels="0 13" meta_region="13 4805 2036 22 20" meta_zmax="16 20" name="New Orleans" priority="0" radius="62874.0" region="18" version="1010" />
<trigger altitude="-228.9" latitude="0.520806109960" level="13" longitude="-1.664449154951" max_level="20" maxsize_13="86499" maxsize_14="102465" maxsize_15="115834" maxsize_16="156476" maxsize_17="150968" maxsize_18="129396" maxsize_19="107257" maxsize_20="99800" meta_levels="0 13" meta_region="13 4797 1913 22 26" meta_zmax="16 20" name="houston" priority="0" radius="73625.9" region="20" version="1017" />
<trigger altitude="939.2" latitude="0.584372320014" level="13" longitude="-1.954305280301" max_level="20" maxsize_13="61609" maxsize_14="75539" maxsize_15="87622" maxsize_16="105614" maxsize_17="126664" maxsize_18="108604" maxsize_19="91933" maxsize_20="74346" meta_levels="0 13" meta_region="13 4897 1536 17 24" meta_zmax="16 20" name="phoenix_heli" priority="0" radius="63636.7" region="21" version="1014" />
<trigger altitude="-5898.9" latitude="0.572790394179" level="13" longitude="-2.041603352005" max_level="20" maxsize_13="67609" maxsize_14="85367" maxsize_15="93858" maxsize_16="110424" maxsize_17="116496" maxsize_18="120438" maxsize_19="103581" maxsize_20="102206" meta_levels="0 13" meta_region="13 4872 1423 29 22" meta_zmax="16 20" name="san_diego" priority="0" radius="73061.6" region="22" version="1036" />
<trigger altitude="839.2" latitude="0.590423293279" level="13" longitude="-1.471672322433" max_level="20" maxsize_13="109272" maxsize_14="118340" maxsize_15="107649" maxsize_16="137788" maxsize_17="134605" maxsize_18="124507" maxsize_19="110755" maxsize_20="104519" meta_levels="0 13" meta_region="13 4905 2168 20 19" meta_zmax="16 20" name="atlanta" priority="0" radius="57255.4" region="23" version="1015" />
<trigger altitude="-49.7" latitude="0.612642774101" level="13" longitude="-1.569642777005" max_level="20" maxsize_13="93727" maxsize_14="112251" maxsize_15="114051" maxsize_16="137323" maxsize_17="137107" maxsize_18="125841" maxsize_19="113061" maxsize_20="106888" meta_levels="0 13" meta_region="13 4944 2042 12 15" meta_zmax="16 20" name="memphis" priority="0" radius="38618.1" region="24" version="1012" />
<trigger altitude="55.0" latitude="0.694693899894" level="13" longitude="-1.831107958190" max_level="20" maxsize_13="57177" maxsize_14="102759" maxsize_15="102173" maxsize_16="112782" maxsize_17="121698" maxsize_18="112927" maxsize_19="99558" maxsize_20="105272" meta_levels="0 13" meta_region="13 5075 1699 19 18" meta_zmax="16 20" name="denver" priority="0" radius="53132.6" region="25" version="1012" />
<trigger altitude="2088.6" latitude="0.375003097103" level="13" longitude="-2.756931119634" max_level="20" maxsize_13="96757" maxsize_14="108649" maxsize_15="114305" maxsize_16="117005" maxsize_17="139550" maxsize_18="133627" maxsize_19="120470" maxsize_20="117899" meta_levels="0 13" meta_region="13 4591 494 12 15" meta_zmax="16 20" name="honolulu" priority="0" radius="44879.0" region="26" version="1010" />
<trigger altitude="94.5" latitude="0.666166074901" level="13" longitude="-0.014217190095" max_level="20" maxsize_13="59322" maxsize_14="116701" maxsize_15="119679" maxsize_16="114679" maxsize_17="161616" maxsize_18="127793" maxsize_19="101663" maxsize_20="123761" name="Murica" priority="0" radius="61703.7" region="27" version="1010" />
<trigger altitude="168.5" latitude="0.907521262178" level="13" longitude="0.149040603437" max_level="20" maxsize_13="60113" maxsize_14="62208" maxsize_15="85681" maxsize_16="88181" maxsize_17="123246" maxsize_18="85738" maxsize_19="73692" maxsize_20="73075" name="Bielefeld" priority="0" radius="14762.9" region="28" version="1011" />
<trigger altitude="14.4" latitude="0.571925321953" level="13" longitude="-1.694286638718" max_level="20" maxsize_13="95001" maxsize_14="120009" maxsize_15="103901" maxsize_16="117825" maxsize_17="103040" maxsize_18="93599" maxsize_19="95988" maxsize_20="79570" meta_levels="0 13" meta_region="13 4884 1880 4 14" meta_zmax="16 20" name="dallas" priority="0" radius="30607.7" region="29" version="1005" />
<trigger altitude="2.6" latitude="0.898742708336" level="13" longitude="-0.002291077587" max_level="20" maxsize_13="57283" maxsize_14="95011" maxsize_15="84374" maxsize_16="110253" maxsize_17="96092" maxsize_18="91856" maxsize_19="85088" maxsize_20="81488" meta_levels="0 13" meta_region="13 5458 4083 19 20" meta_zmax="16 20" name="london" priority="0" radius="42193.4" region="30" version="1030" />
<trigger altitude="110.4" latitude="0.798276789836" level="13" longitude="0.085482692117" max_level="20" maxsize_13="55413" maxsize_14="89873" maxsize_15="84722" maxsize_16="86827" maxsize_17="79866" maxsize_18="79563" maxsize_19="72539" maxsize_20="64502" meta_levels="0 13" meta_region="13 5264 4202 10 11" meta_zmax="16 20" name="lyon" priority="0" radius="26465.4" region="31" version="1022" />
<trigger altitude="344.6" latitude="0.840432341189" level="13" longitude="0.200162788189" max_level="20" maxsize_13="63631" maxsize_14="103372" maxsize_15="100073" maxsize_16="126764" maxsize_17="122087" maxsize_18="115945" maxsize_19="111296" maxsize_20="99179" meta_levels="0 13" meta_region="13 5344 4348 11 17" meta_zmax="16 20" name="munich" priority="0" radius="34572.7" region="32" version="1011" />
<trigger altitude="293.9" latitude="0.648874099382" level="13" longitude="-1.628707085135" max_level="20" maxsize_13="56339" maxsize_14="61038" maxsize_15="95421" maxsize_16="95105" maxsize_17="90795" maxsize_18="88816" maxsize_19="84644" maxsize_20="90350" meta_levels="0 13" meta_region="13 5005 1970 7 5" meta_zmax="16 20" name="springfield_mo" priority="0" radius="17411.0" region="34" version="1005" />
<trigger altitude="38.7" latitude="0.530075605636" level="13" longitude="-1.706429657493" max_level="20" maxsize_13="89440" maxsize_14="98736" maxsize_15="95958" maxsize_16="126514" maxsize_17="129515" maxsize_18="120748" maxsize_19="102926" maxsize_20="96363" meta_levels="0 13" meta_region="13 4811 1864 22 14" meta_zmax="16 20" name="austin" priority="0" radius="56079.6" region="35" version="1010" />
<trigger altitude="138.2" latitude="0.725309738818" level="13" longitude="0.040230703873" max_level="20" maxsize_13="85037" maxsize_14="123508" maxsize_15="119713" maxsize_16="112646" maxsize_17="120431" maxsize_18="110697" maxsize_19="100634" maxsize_20="96156" meta_levels="0 13" meta_region="13 5130 4135 15 27" meta_zmax="16 20" name="barcelona" priority="0" radius="56958.9" region="36" version="1018" />
<trigger altitude="88.7" latitude="0.794768762304" level="13" longitude="0.160218482258" max_level="20" maxsize_13="98170" maxsize_14="107887" maxsize_15="104094" maxsize_16="111508" maxsize_17="104588" maxsize_18="103004" maxsize_19="89815" maxsize_20="87789" meta_levels="0 13" meta_region="13 5256 4300 13 10" meta_zmax="16 20" name="milan" priority="0" radius="29206.8" region="37" version="1037" />
<trigger altitude="678.9" latitude="0.711059926481" level="13" longitude="-1.290839864801" max_level="20" maxsize_13="119662" maxsize_14="123907" maxsize_15="109795" maxsize_16="130798" maxsize_17="115443" maxsize_18="110299" maxsize_19="98751" maxsize_20="96484" meta_levels="0 13" meta_region="13 5105 2405 16 16" meta_zmax="16 20" name="new_york" priority="0" radius="44401.9" region="38" version="1035" />
<trigger altitude="-2280.2" latitude="0.740171906272" level="13" longitude="-1.240161511172" max_level="20" maxsize_13="87185" maxsize_14="104726" maxsize_15="111085" maxsize_16="122815" maxsize_17="121990" maxsize_18="113566" maxsize_19="106665" maxsize_20="100393" meta_levels="0 13" meta_region="13 5156 2473 14 13" meta_zmax="16 20" name="boston" priority="0" radius="35698.9" region="39" version="1014" />
<trigger altitude="44.0" latitude="0.890775584099" level="13" longitude="-1.990353854595" max_level="20" maxsize_13="44619" maxsize_14="84688" maxsize_15="78176" maxsize_16="86638" maxsize_17="121712" maxsize_18="96429" maxsize_19="93394" maxsize_20="93168" name="calgary" priority="0" radius="27944.5" region="40" version="1007" />
<trigger altitude="1298.5" latitude="0.697840845682" level="13" longitude="-1.311328714821" max_level="20" maxsize_13="105051" maxsize_14="123854" maxsize_15="127607" maxsize_16="121053" maxsize_17="122927" maxsize_18="117540" maxsize_19="110682" maxsize_20="104089" meta_levels="0 13" meta_region="13 5084 2380 13 13" meta_zmax="16 20" name="philadelphia" priority="0" radius="36204.6" region="41" version="1036" />
<trigger altitude="1964.8" latitude="0.794716569853" level="13" longitude="-2.141029626210" max_level="20" maxsize_13="81326" maxsize_14="103955" maxsize_15="106335" maxsize_16="121160" maxsize_17="116190" maxsize_18="109197" maxsize_19="102935" maxsize_20="97282" meta_levels="0 13" meta_region="13 5256 1296 14 16" meta_zmax="16 20" name="portland" priority="0" radius="37908.5" region="42" version="1015" />
<trigger altitude="-950.5" latitude="0.763801793540" level="13" longitude="-1.382288180331" max_level="20" maxsize_13="103036" maxsize_14="96077" maxsize_15="91551" maxsize_16="118234" maxsize_17="113907" maxsize_18="105642" maxsize_19="105719" maxsize_20="106067" meta_levels="0 13" meta_region="13 5195 2278 21 32" meta_zmax="16 20" name="toronto" priority="0" radius="69726.0" region="43" version="1009" />
<trigger altitude="-574.2" latitude="0.859470974218" level="13" longitude="-2.146908642450" max_level="20" maxsize_13="53070" maxsize_14="82675" maxsize_15="108319" maxsize_16="105369" maxsize_17="102493" maxsize_18="103466" maxsize_19="104028" maxsize_20="119696" name="vancouver" priority="0" radius="35150.5" region="44" version="1002" />
<trigger altitude="94.6" latitude="0.916465571422" level="13" longitude="-0.034139670670" max_level="20" maxsize_13="45390" maxsize_14="58010" maxsize_15="77220" maxsize_16="94240" maxsize_17="87490" maxsize_18="89359" maxsize_19="80955" maxsize_20="75677" meta_levels="0 13" meta_region="13 5499 4045 12 13" meta_zmax="16 20" name="birmingham" priority="0" radius="26987.3" region="45" version="1010" />
<trigger altitude="-72.4" latitude="0.930365850639" level="13" longitude="-0.109623245141" max_level="20" maxsize_13="45805" maxsize_14="56324" maxsize_15="71589" maxsize_16="93136" maxsize_17="101228" maxsize_18="105429" maxsize_19="95635" maxsize_20="85308" meta_levels="0 13" meta_region="13 5531 3947 8 12" meta_zmax="16 20" name="dublin" priority="0" radius="22337.7" region="46" version="1014" />
<trigger altitude="-299.5" latitude="0.934489312382" level="13" longitude="-0.044956641100" max_level="20" maxsize_13="68848" maxsize_14="114748" maxsize_15="99980" maxsize_16="115711" maxsize_17="109760" maxsize_18="106131" maxsize_19="101950" maxsize_20="101985" name="manchester" priority="0" radius="51082.8" region="47" version="1009" />
<trigger altitude="600.1" latitude="0.853004721948" level="13" longitude="0.042201911876" max_level="20" maxsize_13="91938" maxsize_14="106218" maxsize_15="100255" maxsize_16="117653" maxsize_17="108258" maxsize_18="103831" maxsize_19="100153" maxsize_20="94989" meta_levels="0 13" meta_region="13 5368 4141 13 20" meta_zmax="16 20" name="paris" priority="0" radius="38586.7" region="48" version="1012" />
<trigger altitude="449.2" latitude="0.819162560852" level="13" longitude="0.130386192094" max_level="20" maxsize_13="64178" maxsize_14="82296" maxsize_15="97947" maxsize_16="94194" maxsize_17="97662" maxsize_18="87546" maxsize_19="83139" maxsize_20="99549" meta_levels="0 13" meta_region="13 5306 4263 5 6" meta_zmax="16 20" name="Bern" priority="0" radius="14114.4" region="49" version="1008" />
<trigger altitude="1185.8" latitude="0.620940749802" level="13" longitude="2.439298638372" max_level="20" maxsize_13="112000" maxsize_14="128006" maxsize_15="108470" maxsize_16="121978" maxsize_17="113045" maxsize_18="105648" maxsize_19="92459" maxsize_20="74453" meta_levels="0 13" meta_region="13 4955 7269 17 17" meta_zmax="16 20" name="Tokyo" priority="0" radius="51143.9" region="50" version="1041" />
<trigger altitude="103.4" latitude="0.871067300906" level="13" longitude="0.041039326921" max_level="20" maxsize_13="32579" maxsize_14="42041" maxsize_15="83247" maxsize_16="78530" maxsize_17="76422" maxsize_18="72592" maxsize_19="70561" maxsize_20="66878" meta_levels="0 13" meta_region="13 5406 4144 9 11" meta_zmax="16 20" name="Amiens" priority="0" radius="22774.7" region="51" version="1003" />
<trigger altitude="1611.0" latitude="0.890577004568" level="13" longitude="0.240632222136" max_level="20" maxsize_13="55690" maxsize_14="114526" maxsize_15="103946" maxsize_16="92775" maxsize_17="99369" maxsize_18="87645" maxsize_19="82997" maxsize_20="82353" meta_levels="0 13" meta_region="13 5446 4405 10 10" meta_zmax="16 20" name="Dresden" priority="0" radius="23990.7" region="52" version="1003" />
<trigger altitude="66.0" latitude="0.727330948171" level="13" longitude="0.155316886994" max_level="20" maxsize_13="39968" maxsize_14="48154" maxsize_15="64233" maxsize_16="90751" maxsize_17="87928" maxsize_18="79527" maxsize_19="79168" maxsize_20="90688" meta_levels="0 13" meta_region="13 5140 4297 2 3" meta_zmax="16 20" name="Propriano" priority="0" radius="7298.1" region="53" version="1006" />
<trigger altitude="-495.8" latitude="0.731701783734" level="13" longitude="0.152699279586" max_level="20" maxsize_13="57407" maxsize_14="78957" maxsize_15="85694" maxsize_16="90180" maxsize_17="89274" maxsize_18="87204" maxsize_19="85875" maxsize_20="95121" meta_levels="0 13" meta_region="13 5145 4291 7 8" meta_zmax="16 20" name="Ajaccio" priority="0" radius="20225.2" region="54" version="1011" />
<trigger altitude="-348.0" latitude="0.743030893043" level="13" longitude="0.153033332802" max_level="20" maxsize_13="59292" maxsize_14="50626" maxsize_15="69826" maxsize_16="95127" maxsize_17="85076" maxsize_18="82271" maxsize_19="72371" maxsize_20="79593" meta_levels="0 13" meta_region="13 5166 4293 5 5" meta_zmax="16 20" name="Calvi" priority="0" radius="13553.8" region="55" version="1008" />
<trigger altitude="159.3" latitude="0.630724105567" level="13" longitude="-1.675107920193" max_level="20" maxsize_13="64897" maxsize_14="78240" maxsize_15="107814" maxsize_16="119732" maxsize_17="112202" maxsize_18="110104" maxsize_19="101324" maxsize_20="95422" meta_levels="0 13" meta_region="13 4977 1910 4 4" meta_zmax="16 20" name="tulsa" priority="0" radius="11948.7" region="56" version="1017" />
<trigger altitude="393.7" latitude="0.750773495728" level="13" longitude="-1.377190525131" max_level="20" maxsize_13="61639" maxsize_14="76802" maxsize_15="109413" maxsize_16="118375" maxsize_17="115115" maxsize_18="110995" maxsize_19="113422" maxsize_20="126750" meta_levels="0 13" meta_region="13 5174 2294 17 13" meta_zmax="16 20" name="buffalo" priority="0" radius="39791.8" region="57" version="1011" />
<trigger altitude="9.2" latitude="0.778800172748" level="13" longitude="-0.020704839546" max_level="20" maxsize_13="158821" maxsize_14="173213" maxsize_15="138886" maxsize_16="107935" maxsize_17="110042" maxsize_18="94955" maxsize_19="84496" maxsize_20="83210" meta_levels="0 13" meta_region="13 5231 4066 4 6" meta_zmax="16 20" name="arcachon" priority="0" radius="12816.7" region="58" version="1003" />
<trigger altitude="258.1" latitude="0.744068271665" level="13" longitude="0.165662117286" max_level="20" maxsize_13="54976" maxsize_14="66540" maxsize_15="90133" maxsize_16="107925" maxsize_17="98513" maxsize_18="104364" maxsize_19="95369" maxsize_20="93038" meta_levels="0 13" meta_region="13 5166 4310 9 4" meta_zmax="16 20" name="Bastia" priority="0" radius="19105.1" region="59" version="1008" />
<trigger altitude="29.1" latitude="0.693909580911" level="13" longitude="-1.504416969025" max_level="20" maxsize_13="67580" maxsize_14="99005" maxsize_15="106520" maxsize_16="123526" maxsize_17="111005" maxsize_18="110312" maxsize_19="104326" maxsize_20="98744" meta_levels="0 13" meta_region="13 5080 2130 7 9" meta_zmax="16 20" name="indianapolis" priority="0" radius="22025.0" region="60" version="1010" />
<trigger altitude="-287.2" latitude="0.784585608748" level="13" longitude="-1.626050869824" max_level="20" maxsize_13="63593" maxsize_14="85923" maxsize_15="90262" maxsize_16="113380" maxsize_17="101206" maxsize_18="94309" maxsize_19="89049" maxsize_20="76323" meta_levels="0 13" meta_region="13 5239 1971 9 10" meta_zmax="16 20" name="minneapolis" priority="0" radius="23829.9" region="61" version="1018" />
<trigger altitude="-233.6" latitude="0.721907759496" level="13" longitude="0.161080050564" max_level="20" maxsize_13="40440" maxsize_14="45293" maxsize_15="57783" maxsize_16="64005" maxsize_17="72021" maxsize_18="82007" maxsize_19="69156" maxsize_20="55665" meta_levels="0 13" meta_region="13 5130 4304 3 4" meta_zmax="16 20" name="Bonifacio" priority="0" radius="10048.3" region="62" version="1004" />
<trigger altitude="438.1" latitude="0.738161044884" level="13" longitude="0.160301008639" max_level="20" maxsize_13="52392" maxsize_14="55960" maxsize_15="72443" maxsize_16="85849" maxsize_17="81701" maxsize_18="76693" maxsize_19="73697" maxsize_20="72114" meta_levels="0 13" meta_region="13 5159 4304 2 2" meta_zmax="16 20" name="Corte" priority="0" radius="5776.3" region="63" version="1003" />
<trigger altitude="91.6" latitude="0.974778017186" level="13" longitude="-0.075963497351" max_level="20" maxsize_13="45453" maxsize_14="54595" maxsize_15="67370" maxsize_16="91527" maxsize_17="93775" maxsize_18="90506" maxsize_19="82538" maxsize_20="78292" meta_levels="0 13" meta_region="13 5630 3990 10 14" meta_zmax="16 20" name="glasgow" priority="0" radius="24227.6" region="64" version="1045" />
<trigger altitude="-228.0" latitude="0.725930675446" level="13" longitude="0.162572554130" max_level="20" maxsize_13="48379" maxsize_14="55143" maxsize_15="80679" maxsize_16="95041" maxsize_17="90714" maxsize_18="84746" maxsize_19="84319" maxsize_20="82178" meta_levels="0 13" meta_region="13 5136 4305 5 6" meta_zmax="16 20" name="Porto Vecchio" priority="0" radius="15270.2" region="65" version="1003" />
<trigger altitude="876.0" latitude="0.685500984157" level="13" longitude="-1.336092144429" max_level="20" maxsize_13="91350" maxsize_14="90586" maxsize_15="99746" maxsize_16="125250" maxsize_17="115849" maxsize_18="109065" maxsize_19="100327" maxsize_20="95627" meta_levels="0 13" meta_region="13 5066 2350 7 8" meta_zmax="16 20" name="baltimore" priority="0" radius="21731.3" region="70" version="1006" />
<trigger altitude="168.0" latitude="0.891029387393" level="13" longitude="0.121742941620" max_level="20" maxsize_13="90106" maxsize_14="107001" maxsize_15="109007" maxsize_16="99324" maxsize_17="107129" maxsize_18="101845" maxsize_19="95089" maxsize_20="100297" meta_levels="0 13" meta_region="13 5440 4245 23 19" meta_zmax="16 20" name="cologne" priority="0" radius="47350.1" region="76" version="1024" />
<trigger altitude="29.8" latitude="0.688584264375" level="13" longitude="-0.008823348072" max_level="20" maxsize_13="96195" maxsize_14="111339" maxsize_15="105584" maxsize_16="118796" maxsize_17="110954" maxsize_18="127708" maxsize_19="106035" maxsize_20="93714" meta_levels="0 13" meta_region="13 5067 4078 15 13" meta_zmax="16 20" name="Valencia" priority="0" radius="37713.0" region="79" version="1012" />
<trigger altitude="-171.7" latitude="0.514175613593" level="13" longitude="-1.718844234056" max_level="20" maxsize_13="75191" maxsize_14="90270" maxsize_15="96064" maxsize_16="120366" maxsize_17="124125" maxsize_18="117400" maxsize_19="105781" maxsize_20="94963" meta_levels="0 13" meta_region="13 4792 1848 12 14" meta_zmax="16 20" name="san_antonio" priority="0" radius="41892.1" region="84" version="1003" />
<trigger altitude="-285.8" latitude="0.630764219106" level="13" longitude="-1.512846573992" max_level="20" maxsize_13="85152" maxsize_14="98726" maxsize_15="101442" maxsize_16="136001" maxsize_17="141439" maxsize_18="121152" maxsize_19="111552" maxsize_20="102230" meta_levels="0 13" meta_region="13 4973 2117 12 13" meta_zmax="16 20" name="nashville" priority="0" radius="35752.8" region="85" version="1009" />
<trigger altitude="-321.5" latitude="0.728507083398" level="13" longitude="-1.246972707710" max_level="20" maxsize_13="71890" maxsize_14="92510" maxsize_15="96983" maxsize_16="133778" maxsize_17="127334" maxsize_18="119607" maxsize_19="105873" maxsize_20="95649" meta_levels="0 13" meta_region="13 5136 2466 14 9" meta_zmax="16 20" name="providence" priority="0" radius="32233.7" region="89" version="1003" />
<trigger altitude="-574.2" latitude="0.662915828440" level="13" longitude="-2.117068569097" max_level="20" maxsize_13="40854" maxsize_14="49545" maxsize_15="91493" maxsize_16="112983" maxsize_17="118870" maxsize_18="116573" maxsize_19="102247" maxsize_20="89790" meta_levels="0 13" meta_region="13 5028 1332 7 7" meta_zmax="16 20" name="stockton" priority="0" radius="22292.0" region="90" version="1003" />
<trigger altitude="-135.4" latitude="0.762027098693" level="13" longitude="-1.226498903528" max_level="20" maxsize_13="55044" maxsize_14="82374" maxsize_15="99102" maxsize_16="117110" maxsize_17="110907" maxsize_18="109150" maxsize_19="106501" maxsize_20="102709" meta_levels="0 13" meta_region="13 5199 2494 7 6" meta_zmax="16 20" name="portland_me" priority="0" radius="18874.7" region="91" version="1004" />
<trigger altitude="-720.9" latitude="0.657180148772" level="13" longitude="-2.111626818527" max_level="20" maxsize_13="53167" maxsize_14="61561" maxsize_15="87859" maxsize_16="111097" maxsize_17="126695" maxsize_18="116398" maxsize_19="103503" maxsize_20="92249" meta_levels="0 13" meta_region="13 5019 1340 6 6" meta_zmax="16 20" name="modesto" priority="0" radius="19125.3" region="92" version="1008" />
<trigger altitude="115.9" latitude="0.776610843496" level="13" longitude="-1.536305376319" max_level="20" maxsize_13="50681" maxsize_14="59471" maxsize_15="92264" maxsize_16="110097" maxsize_17="103197" maxsize_18="103550" maxsize_19="91369" maxsize_20="85972" meta_levels="0 13" meta_region="13 5225 2089 8 8" meta_zmax="16 20" name="greenbay" priority="0" radius="20163.4" region="93" version="1004" />
<trigger altitude="-3442.7" latitude="0.722014287221" level="13" longitude="-1.425518206931" max_level="20" maxsize_13="88506" maxsize_14="102045" maxsize_15="104825" maxsize_16="127838" maxsize_17="122378" maxsize_18="120891" maxsize_19="112453" maxsize_20="103467" meta_levels="0 13" meta_region="13 5115 2223 32 30" meta_zmax="16 20" name="cleveland" priority="0" radius="81149.5" region="94" version="1014" />
<trigger altitude="671.3" latitude="0.746243990413" level="13" longitude="-1.288447905834" max_level="20" maxsize_13="91627" maxsize_14="99753" maxsize_15="107376" maxsize_16="124250" maxsize_17="120095" maxsize_18="119269" maxsize_19="105169" maxsize_20="98333" meta_levels="0 13" meta_region="13 5168 2411 13 10" meta_zmax="16 20" name="'albany'" priority="0" radius="30367.8" region="95" version="1005" />
<trigger altitude="101.7" latitude="-0.643953333532" level="13" longitude="3.052581884443" max_level="20" maxsize_13="61259" maxsize_14="118541" maxsize_15="110704" maxsize_16="120601" maxsize_17="116539" maxsize_18="115288" maxsize_19="103766" maxsize_20="96066" meta_levels="0 13" meta_region="13 3185 8068 13 16" meta_zmax="16 20" name="Auckland" priority="0" radius="40773.8" region="98" version="1005" />
<trigger altitude="261.2" latitude="-0.719519168983" level="13" longitude="3.051797146496" max_level="20" maxsize_13="78360" maxsize_14="83259" maxsize_15="106303" maxsize_16="119995" maxsize_17="120946" maxsize_18="119372" maxsize_19="107967" maxsize_20="100082" meta_levels="0 13" meta_region="13 3059 8069 11 12" meta_zmax="16 20" name="wellington" priority="0" radius="30632.8" region="100" version="1014" />
<trigger altitude="476.9" latitude="0.616979280766" level="13" longitude="-2.077980891247" max_level="20" maxsize_13="50334" maxsize_14="58962" maxsize_15="81521" maxsize_16="109381" maxsize_17="137524" maxsize_18="121581" maxsize_19="91681" maxsize_20="84228" meta_levels="0 13" meta_region="13 4954 1382 6 9" meta_zmax="16 20" name="bakersfield" priority="0" radius="24343.8" region="101" version="1009" />
<trigger altitude="-686.2" latitude="0.642217624444" level="13" longitude="-2.090146530500" max_level="20" maxsize_13="50714" maxsize_14="60837" maxsize_15="90497" maxsize_16="114123" maxsize_17="157261" maxsize_18="123475" maxsize_19="104878" maxsize_20="98303" meta_levels="0 13" meta_region="13 4993 1366 9 10" meta_zmax="16 20" name="fresno" priority="0" radius="29229.9" region="102" version="1004" />
<trigger altitude="1745.7" latitude="-0.594450949798" level="13" longitude="0.323752931031" max_level="20" maxsize_13="65187" maxsize_14="97745" maxsize_15="97680" maxsize_16="117086" maxsize_17="110077" maxsize_18="106189" maxsize_19="90653" maxsize_20="89393" meta_levels="0 13" meta_region="13 3262 4512 17 13" meta_zmax="16 20" name="cape town" priority="0" radius="44052.7" region="112" version="1008" />
<trigger altitude="889.9" latitude="0.784102212882" level="13" longitude="-2.147225049431" max_level="20" maxsize_13="68946" maxsize_14="77297" maxsize_15="99397" maxsize_16="117930" maxsize_17="117911" maxsize_18="105626" maxsize_19="105228" maxsize_20="98664" meta_levels="0 13" meta_region="13 5239 1293 8 6" meta_zmax="16 20" name="salem" priority="0" radius="20595.5" region="121" version="1009" />
<trigger altitude="-21.5" latitude="-0.760065150679" level="13" longitude="3.013534693630" max_level="20" maxsize_13="54549" maxsize_14="53578" maxsize_15="80552" maxsize_16="101059" maxsize_17="101827" maxsize_18="100951" maxsize_19="89823" maxsize_20="82616" meta_levels="0 13" meta_region="13 2989 8020 8 10" meta_zmax="16 20" name="Christchurch" priority="0" radius="23475.8" region="124" version="1003" />
<trigger altitude="417.5" latitude="1.019612151723" level="13" longitude="0.273012687854" max_level="20" maxsize_13="39786" maxsize_14="43361" maxsize_15="55755" maxsize_16="106262" maxsize_17="101545" maxsize_18="100153" maxsize_19="95540" maxsize_20="85002" meta_levels="0 13" meta_region="13 5738 4448 10 9" meta_zmax="16 20" name="Linkoping" priority="0" radius="18457.8" region="125" version="1066" />
<trigger altitude="-2103.4" latitude="-0.558515050341" level="13" longitude="2.020860077815" max_level="20" maxsize_13="63380" maxsize_14="83883" maxsize_15="103576" maxsize_16="117322" maxsize_17="115040" maxsize_18="108487" maxsize_19="100034" maxsize_20="105630" meta_levels="0 13" meta_region="13 3319 6722 16 16" meta_zmax="16 20" name="Perth" priority="0" radius="50564.0" region="126" version="1007" />
<trigger altitude="1039.4" latitude="0.765410728194" level="13" longitude="-1.806684517825" max_level="20" maxsize_13="51859" maxsize_14="55605" maxsize_15="66878" maxsize_16="87746" maxsize_17="95518" maxsize_18="93207" maxsize_19="83037" maxsize_20="73782" meta_levels="0 13" meta_region="13 5206 1737 5 7" meta_zmax="16 20" name="mount_rushmore" priority="0" radius="15752.4" region="127" version="1004" />
<trigger altitude="27.3" latitude="0.782871880390" level="13" longitude="-0.011127651930" max_level="20" maxsize_13="57568" maxsize_14="55601" maxsize_15="85334" maxsize_16="123682" maxsize_17="119841" maxsize_18="106859" maxsize_19="102394" maxsize_20="89918" meta_levels="0 13" meta_region="13 5236 4077 9 9" meta_zmax="16 20" name="Bordeaux" priority="0" radius="22265.6" region="128" version="1020" />
<trigger altitude="-907.6" latitude="0.635458774288" level="13" longitude="-0.085204599996" max_level="20" maxsize_13="86084" maxsize_14="103278" maxsize_15="115124" maxsize_16="112801" maxsize_17="116193" maxsize_18="106518" maxsize_19="94712" maxsize_20="116522" meta_levels="0 13" meta_region="13 4976 3970 21 30" meta_zmax="16 20" name="Gibraltar" priority="0" radius="72743.9" region="129" version="1030" />
<trigger altitude="2117.6" latitude="0.717796728386" level="13" longitude="-1.829568472236" max_level="20" maxsize_13="43249" maxsize_14="45530" maxsize_15="76029" maxsize_16="102474" maxsize_17="94592" maxsize_18="96186" maxsize_19="87087" maxsize_20="75474" meta_levels="0 13" meta_region="13 5122 1708 5 5" meta_zmax="16 20" name="Cheyenne" priority="0" radius="14227.9" region="130" version="1005" />
<trigger altitude="80.1" latitude="0.938994351176" level="13" longitude="-0.027222161011" max_level="20" maxsize_13="40166" maxsize_14="59424" maxsize_15="75065" maxsize_16="97343" maxsize_17="87305" maxsize_18="83848" maxsize_19="84104" maxsize_20="72990" meta_levels="0 13" meta_region="13 5551 4057 6 7" meta_zmax="16 20" name="Leeds" priority="0" radius="13611.4" region="131" version="1011" />
<trigger altitude="494.4" latitude="0.793129666694" level="13" longitude="0.076310751593" max_level="20" maxsize_13="65100" maxsize_14="77637" maxsize_15="92299" maxsize_16="105039" maxsize_17="110214" maxsize_18="105922" maxsize_19="100429" maxsize_20="95844" meta_levels="0 13" meta_region="13 5256 4192 7 7" meta_zmax="16 20" name="saint etienne" priority="0" radius="17463.3" region="132" version="1009" />
<trigger altitude="195.5" latitude="0.652512649402" level="13" longitude="-0.103592681494" max_level="20" maxsize_13="77873" maxsize_14="104161" maxsize_15="101996" maxsize_16="119462" maxsize_17="117467" maxsize_18="122162" maxsize_19="97463" maxsize_20="88188" meta_levels="0 13" meta_region="13 5010 3954 9 14" meta_zmax="16 20" name="sevilla" priority="0" radius="33328.1" region="133" version="1007" />
<trigger altitude="168.6" latitude="0.924331726427" level="13" longitude="-0.164895207910" max_level="20" maxsize_13="32059" maxsize_14="24971" maxsize_15="27772" maxsize_16="31822" maxsize_17="45276" maxsize_18="61716" maxsize_19="73258" maxsize_20="67967" meta_levels="0 13" meta_region="13 5520 3879 4 4" meta_zmax="16 20" name="cliffs of moher" priority="0" radius="9347.1" region="134" version="1002" />
<trigger altitude="98.8" latitude="0.757276038118" level="13" longitude="0.094288871969" max_level="20" maxsize_13="85168" maxsize_14="105864" maxsize_15="104945" maxsize_16="114387" maxsize_17="114427" maxsize_18="103667" maxsize_19="91758" maxsize_20="90545" meta_levels="0 13" meta_region="13 5187 4215 14 8" meta_zmax="16 20" name="marseille" priority="0" radius="28968.8" region="135" version="1010" />
<trigger altitude="888.2" latitude="0.751899893027" level="13" longitude="0.217030110999" max_level="20" maxsize_13="58158" maxsize_14="86958" maxsize_15="98203" maxsize_16="112147" maxsize_17="113908" maxsize_18="109812" maxsize_19="102012" maxsize_20="95807" meta_levels="0 13" meta_region="13 5180 4373 9 12" meta_zmax="16 20" name="perugia" priority="0" radius="28569.3" region="136" version="1004" />
<trigger altitude="300.4" latitude="0.761126518789" level="13" longitude="0.233091983231" max_level="20" maxsize_13="52464" maxsize_14="69915" maxsize_15="104516" maxsize_16="115888" maxsize_17="107093" maxsize_18="107671" maxsize_19="92868" maxsize_20="89561" meta_levels="0 13" meta_region="13 5195 4393 12 14" meta_zmax="16 20" name="Ancona" priority="0" radius="33273.1" region="137" version="1003" />
<trigger altitude="325.8" latitude="1.050903836770" level="13" longitude="0.435016645207" max_level="20" maxsize_13="57508" maxsize_14="56433" maxsize_15="52824" maxsize_16="100053" maxsize_17="96222" maxsize_18="93054" maxsize_19="85109" maxsize_20="81664" meta_levels="0 13" meta_region="13 5816 4653 14 19" meta_zmax="16 20" name="helsinki" priority="0" radius="31081.8" region="138" version="1004" />
<trigger altitude="-305.7" latitude="0.661105166822" level="13" longitude="-0.083617497013" max_level="20" maxsize_13="52559" maxsize_14="91418" maxsize_15="99218" maxsize_16="129788" maxsize_17="127387" maxsize_18="119982" maxsize_19="106212" maxsize_20="100026" meta_levels="0 13" meta_region="13 5025 3983 7 8" meta_zmax="16 20" name="cordoba" priority="0" radius="21242.4" region="139" version="1002" />
<trigger altitude="544.7" latitude="0.769476618081" level="13" longitude="0.052923332585" max_level="20" maxsize_13="42463" maxsize_14="49512" maxsize_15="58250" maxsize_16="103732" maxsize_17="88208" maxsize_18="88840" maxsize_19="83037" maxsize_20="81541" meta_levels="0 13" meta_region="13 5214 4163 4 4" meta_zmax="16 20" name="Millau" priority="0" radius="10329.7" region="140" version="1006" />
<trigger altitude="-5522.4" latitude="0.605096171154" level="13" longitude="2.361585216358" max_level="20" maxsize_13="119998" maxsize_14="130102" maxsize_15="122154" maxsize_16="124324" maxsize_17="123930" maxsize_18="121547" maxsize_19="111543" maxsize_20="97053" meta_levels="0 13" meta_region="13 4924 7157 26 32" meta_zmax="16 20" name="Osaka" priority="0" radius="90450.9" region="142" version="1033" />
<trigger altitude="63.8" latitude="0.755050287032" level="13" longitude="0.115815683407" max_level="20" maxsize_13="39734" maxsize_14="44425" maxsize_15="58732" maxsize_16="94428" maxsize_17="93214" maxsize_18="85602" maxsize_19="80491" maxsize_20="73746" meta_levels="0 13" meta_region="13 5189 4245 2 4" meta_zmax="16 20" name="saint_tropez" priority="0" radius="8571.9" region="143" version="1004" />
<trigger altitude="-1489.7" latitude="0.649780626564" level="13" longitude="-1.971162977992" max_level="20" maxsize_13="82601" maxsize_14="83742" maxsize_15="91303" maxsize_16="107873" maxsize_17="224359" maxsize_18="161287" maxsize_19="117172" maxsize_20="6740" name="Zion" priority="0" radius="43522.3" region="144" version="1016" />
<trigger altitude="124.9" latitude="0.893488621060" level="13" longitude="-0.031073366522" max_level="20" maxsize_13="34757" maxsize_14="35325" maxsize_15="44090" maxsize_16="72252" maxsize_17="76800" maxsize_18="78545" maxsize_19="73685" maxsize_20="68104" meta_levels="0 13" meta_region="13 5455 4053 3 5" meta_zmax="16 20" name="stonehenge" priority="0" radius="9203.9" region="145" version="1004" />
<trigger altitude="-333.2" latitude="0.657336321038" level="13" longitude="-2.132906543820" max_level="20" maxsize_13="118525" maxsize_14="138022" maxsize_15="137139" maxsize_16="157537" maxsize_17="145158" maxsize_18="135116" maxsize_19="126736" maxsize_20="98229" meta_levels="0 13" meta_region="13 5001 1300 43 31" meta_zmax="16 20" name="'Bay Area'" priority="0" radius="98526.1" region="146" version="1209" />
<trigger altitude="896.1" latitude="0.717125543852" level="13" longitude="0.290851292123" max_level="20" maxsize_13="62213" maxsize_14="118888" maxsize_15="104460" maxsize_16="110865" maxsize_17="106560" maxsize_18="98357" maxsize_19="80395" maxsize_20="82062" meta_levels="0 13" meta_region="13 5119 4465 9 20" meta_zmax="16 20" name="bari" priority="0" radius="41151.0" region="147" version="1012" />
<trigger altitude="71.2" latitude="0.529414437564" level="13" longitude="-1.589214741675" max_level="20" maxsize_13="93648" maxsize_14="104755" maxsize_15="106704" maxsize_16="150535" maxsize_17="149935" maxsize_18="130432" maxsize_19="113775" maxsize_20="111209" meta_levels="0 13" meta_region="13 4812 2017 18 14" meta_zmax="16 20" name="Baton Rouge" priority="0" radius="48155.6" region="148" version="1010" />
<trigger altitude="-138.1" latitude="0.952954754212" level="13" longitude="-0.104010828290" max_level="20" maxsize_13="39938" maxsize_14="44875" maxsize_15="50405" maxsize_16="91095" maxsize_17="84774" maxsize_18="83602" maxsize_19="79313" maxsize_20="70744" meta_levels="0 13" meta_region="13 5580 3956 10 9" meta_zmax="16 20" name="Belfast" priority="0" radius="19941.9" region="149" version="1005" />
<trigger altitude="735.6" latitude="0.760841376717" level="13" longitude="-2.032259622533" max_level="20" maxsize_13="43056" maxsize_14="53359" maxsize_15="90033" maxsize_16="107793" maxsize_17="99500" maxsize_18="92730" maxsize_19="89395" maxsize_20="99706" name="Boise" priority="0" radius="38879.6" region="150" version="1001" />
<trigger altitude="1817.3" latitude="0.829013445705" level="13" longitude="0.333839436673" max_level="20" maxsize_13="71056" maxsize_14="114801" maxsize_15="125255" maxsize_16="118373" maxsize_17="171001" maxsize_18="125513" maxsize_19="115025" maxsize_20="117457" name="Budapest" priority="0" radius="51271.7" region="152" version="1003" />
<trigger altitude="-986.6" latitude="-0.616238591577" level="13" longitude="2.602818080089" max_level="20" maxsize_13="59612" maxsize_14="84889" maxsize_15="99775" maxsize_16="129794" maxsize_17="133323" maxsize_18="117003" maxsize_19="106388" maxsize_20="93530" meta_levels="0 13" meta_region="13 3231 7486 11 8" meta_zmax="16 20" name="Canberra" priority="0" radius="29275.7" region="153" version="1011" />
<trigger altitude="1491.1" latitude="0.573992693767" level="13" longitude="-1.396089493234" max_level="20" maxsize_13="101113" maxsize_14="102265" maxsize_15="101147" maxsize_16="142029" maxsize_17="142287" maxsize_18="131218" maxsize_19="117281" maxsize_20="107729" meta_levels="0 13" meta_region="13 4879 2268 21 16" meta_zmax="16 20" name="Charleston" priority="0" radius="55655.6" region="154" version="1007" />
<trigger altitude="49.8" latitude="0.904942720768" level="13" longitude="-0.146535576104" max_level="20" maxsize_13="45138" maxsize_14="42776" maxsize_15="54952" maxsize_16="83048" maxsize_17="91631" maxsize_18="96181" maxsize_19="89054" maxsize_20="84319" name="Cork" priority="0" radius="24610.7" region="155" version="1004" />
<trigger altitude="126.1" latitude="-0.800367039442" level="13" longitude="2.976314638994" max_level="20" maxsize_13="59069" maxsize_14="60189" maxsize_15="78176" maxsize_16="111414" maxsize_17="117619" maxsize_18="111263" maxsize_19="99017" maxsize_20="88559" meta_levels="0 13" meta_region="13 2915 7970 8 13" meta_zmax="16 20" name="Dunedin" priority="0" radius="27328.1" region="156" version="1003" />
<trigger altitude="894.3" latitude="0.554662070967" level="13" longitude="-2.035590720324" max_level="20" maxsize_13="65459" maxsize_14="60646" maxsize_15="65616" maxsize_16="92602" maxsize_17="93311" maxsize_18="92749" maxsize_19="87434" maxsize_20="90093" name="Ensenada" priority="0" radius="27336.0" region="157" version="1001" />
<trigger altitude="1283.1" latitude="0.649125464357" level="13" longitude="-0.064450683525" max_level="20" maxsize_13="62418" maxsize_14="99842" maxsize_15="102596" maxsize_16="113845" maxsize_17="107445" maxsize_18="104017" maxsize_19="93441" maxsize_20="79224" meta_levels="0 13" meta_region="13 5005 4007 8 10" meta_zmax="16 20" name="Granada" priority="0" radius="25401.8" region="159" version="1008" />
<trigger altitude="16.9" latitude="0.760619135381" level="13" longitude="0.067498612137" max_level="20" maxsize_13="48677" maxsize_14="72676" maxsize_15="87261" maxsize_16="111037" maxsize_17="110240" maxsize_18="105708" maxsize_19="94786" maxsize_20="88865" meta_levels="0 13" meta_region="13 5195 4180 10 8" meta_zmax="16 20" name="Montpellier" priority="0" radius="23223.8" region="162" version="1006" />
<trigger altitude="302.3" latitude="-0.720694035393" level="13" longitude="3.022977447720" max_level="20" maxsize_13="56881" maxsize_14="65524" maxsize_15="87008" maxsize_16="103220" maxsize_17="116368" maxsize_18="116177" maxsize_19="118028" maxsize_20="135298" meta_levels="0 13" meta_region="13 3059 8033 7 9" meta_zmax="16 20" name="Nelson" priority="0" radius="21654.0" region="164" version="1013" />
<trigger altitude="1501.4" latitude="-0.575301697248" level="13" longitude="2.647388385117" max_level="20" maxsize_13="69026" maxsize_14="81455" maxsize_15="91834" maxsize_16="129351" maxsize_17="122348" maxsize_18="119091" maxsize_19="106794" maxsize_20="96599" meta_levels="0 13" meta_region="13 3295 7544 11 8" meta_zmax="16 20" name="Newcastle" priority="0" radius="28889.6" region="165" version="1020" />
<trigger altitude="-254.1" latitude="0.761531510506" level="13" longitude="0.125215666144" max_level="20" maxsize_13="67002" maxsize_14="111091" maxsize_15="107183" maxsize_16="118835" maxsize_17="121473" maxsize_18="117333" maxsize_19="105216" maxsize_20="100837" meta_levels="0 13" meta_region="13 5196 4251 11 17" meta_zmax="16 20" name="Nice" priority="0" radius="36784.3" region="166" version="1008" />
<trigger altitude="-133.4" latitude="0.764532160283" level="13" longitude="0.077028241984" max_level="20" maxsize_13="39456" maxsize_14="46816" maxsize_15="80960" maxsize_16="109964" maxsize_17="100999" maxsize_18="94521" maxsize_19="91827" maxsize_20="86048" meta_levels="0 13" meta_region="13 5204 4193 6 7" meta_zmax="16 20" name="Nimes" priority="0" radius="16780.7" region="167" version="1003" />
<trigger altitude="952.8" latitude="0.618166175914" level="13" longitude="-1.702669136723" max_level="20" maxsize_13="56706" maxsize_14="74176" maxsize_15="101761" maxsize_16="121808" maxsize_17="129223" maxsize_18="124807" maxsize_19="104309" maxsize_20="97730" meta_levels="0 13" meta_region="13 4950 1870 18 12" meta_zmax="16 20" name="Oklahoma City" priority="0" radius="44211.8" region="168" version="1005" />
<trigger altitude="-162.5" latitude="0.531108350575" level="13" longitude="-1.522501300943" max_level="20" maxsize_13="68293" maxsize_14="91445" maxsize_15="112856" maxsize_16="121488" maxsize_17="133450" maxsize_18="107787" maxsize_19="107079" maxsize_20="104438" name="Pensacola" priority="0" radius="19851.4" region="169" version="1010" />
<trigger altitude="-853.2" latitude="0.904625427610" level="13" longitude="0.077036322892" max_level="20" maxsize_13="46903" maxsize_14="56085" maxsize_15="84146" maxsize_16="105000" maxsize_17="100845" maxsize_18="94167" maxsize_19="88087" maxsize_20="77060" meta_levels="0 13" meta_region="13 5472 4185 15 23" meta_zmax="16 20" name="Rotterdam" priority="0" radius="42314.0" region="170" version="1008" />
<trigger altitude="13.1" latitude="0.675176831732" level="13" longitude="-1.576943841534" max_level="20" maxsize_13="79519" maxsize_14="94033" maxsize_15="102845" maxsize_16="140639" maxsize_17="132076" maxsize_18="116709" maxsize_19="98512" maxsize_20="93500" meta_levels="0 13" meta_region="13 5045 2032 14 16" meta_zmax="16 20" name="St Louis" priority="0" radius="40777.4" region="172" version="1010" />
<trigger altitude="-713.8" latitude="0.786287500298" level="13" longitude="0.132169389709" max_level="20" maxsize_13="80559" maxsize_14="114334" maxsize_15="105447" maxsize_16="119089" maxsize_17="116472" maxsize_18="116642" maxsize_19="105416" maxsize_20="97472" meta_levels="0 13" meta_region="13 5241 4262 11 13" meta_zmax="16 20" name="Torino" priority="0" radius="30279.1" region="173" version="1005" />
<trigger altitude="-5742.5" latitude="0.318060417172" level="13" longitude="-1.129421681400" max_level="20" maxsize_13="55249" maxsize_14="61994" maxsize_15="87741" maxsize_16="107362" maxsize_17="108593" maxsize_18="109260" maxsize_19="103473" maxsize_20="121816" meta_levels="0 13" meta_region="13 4504 2614 27 20" meta_zmax="16 20" name="US Virgin Islands" priority="0" radius="79145.1" region="174" version="1025" />
<trigger altitude="-40.1" latitude="0.643362910360" level="13" longitude="-0.041812429000" max_level="20" maxsize_13="54047" maxsize_14="109960" maxsize_15="108512" maxsize_16="116143" maxsize_17="108557" maxsize_18="101558" maxsize_19="85126" maxsize_20="74778" meta_levels="0 13" meta_region="13 4997 4038 5 7" meta_zmax="16 20" name="Almeria" priority="0" radius="17040.2" region="176" version="1011" />
<trigger altitude="840.1" latitude="0.843657625750" level="13" longitude="0.190082411735" max_level="20" maxsize_13="49116" maxsize_14="81435" maxsize_15="97075" maxsize_16="116813" maxsize_17="115869" maxsize_18="115278" maxsize_19="107169" maxsize_20="100065" meta_levels="0 13" meta_region="13 5351 4340 10 7" meta_zmax="16 20" name="'Augsburg'" priority="0" radius="21015.9" region="177" version="1012" />
<trigger altitude="50.4" latitude="0.756445252218" level="13" longitude="0.056375837496" max_level="20" maxsize_13="42095" maxsize_14="64320" maxsize_15="88713" maxsize_16="110303" maxsize_17="100747" maxsize_18="98603" maxsize_19="91361" maxsize_20="96288" meta_levels="0 13" meta_region="13 5190 4167 5 5" meta_zmax="16 20" name="Beziers" priority="0" radius="13174.1" region="178" version="1004" />
<trigger altitude="56.0" latitude="0.759230096640" level="13" longitude="-0.026462343644" max_level="20" maxsize_13="54133" maxsize_14="91283" maxsize_15="104825" maxsize_16="100187" maxsize_17="102821" maxsize_18="89417" maxsize_19="84517" maxsize_20="89878" name="Biarritz" priority="0" radius="12742.0" region="179" version="1003" />
<trigger altitude="687.5" latitude="0.401709312413" level="13" longitude="-1.916717337169" max_level="20" maxsize_13="53073" maxsize_14="66893" maxsize_15="79580" maxsize_16="102089" maxsize_17="95852" maxsize_18="92710" maxsize_19="87196" maxsize_20="92053" meta_levels="0 13" meta_region="13 4630 1592 9 10" meta_zmax="16 20" name="Cabo San Lucas" priority="0" radius="30833.3" region="180" version="1004" />
<trigger altitude="807.3" latitude="0.799268258881" level="13" longitude="0.054455262707" max_level="20" maxsize_13="51655" maxsize_14="83701" maxsize_15="100064" maxsize_16="123322" maxsize_17="121604" maxsize_18="112086" maxsize_19="105948" maxsize_20="92612" meta_levels="0 13" meta_region="13 5266 4162 10 10" meta_zmax="16 20" name="Clermont-Ferrand" priority="0" radius="24875.7" region="181" version="1004" />
<trigger altitude="637.3" latitude="0.820941480767" level="13" longitude="0.269957677884" max_level="20" maxsize_13="55116" maxsize_14="80385" maxsize_15="122873" maxsize_16="112717" maxsize_17="171466" maxsize_18="118740" maxsize_19="96596" maxsize_20="101047" name="Graz" priority="0" radius="18949.8" region="183" version="1001" />
<trigger altitude="-1835.9" latitude="0.683130416572" level="13" longitude="-2.095152157495" max_level="20" maxsize_13="85047" maxsize_14="116703" maxsize_15="129934" maxsize_16="145858" maxsize_17="144346" maxsize_18="129024" maxsize_19="111083" maxsize_20="96777" meta_levels="0 13" meta_region="13 5052 1358 26 13" meta_zmax="16 20" name="Lake Tahoe" priority="0" radius="59431.2" region="184" version="1008" />
<trigger altitude="976.0" latitude="0.842354974364" level="13" longitude="0.249291042018" max_level="20" maxsize_13="50974" maxsize_14="78579" maxsize_15="97019" maxsize_16="90779" maxsize_17="195875" maxsize_18="116378" maxsize_19="97187" maxsize_20="94857" name="Linz" priority="0" radius="18338.8" region="185" version="1002" />
<trigger altitude="2401.5" latitude="0.609811445868" level="13" longitude="2.386994008387" max_level="20" maxsize_13="86478" maxsize_14="118687" maxsize_15="106871" maxsize_16="115008" maxsize_17="118811" maxsize_18="120818" maxsize_19="101443" maxsize_20="76980" meta_levels="0 13" meta_region="13 4931 7198 30 20" meta_zmax="16 20" name="Nagoya" priority="0" radius="76884.7" region="186" version="1040" />
<trigger altitude="-861.7" latitude="0.712735609372" level="13" longitude="0.248313448861" max_level="20" maxsize_13="79986" maxsize_14="129274" maxsize_15="115854" maxsize_16="112129" maxsize_17="106053" maxsize_18="111832" maxsize_19="99349" maxsize_20="76910" meta_levels="0 13" meta_region="13 5106 4410 19 19" meta_zmax="16 20" name="Napoli" priority="0" radius="49538.0" region="187" version="1011" />
<trigger altitude="236.2" latitude="0.719569508619" level="13" longitude="-1.676651195960" max_level="20" maxsize_13="58507" maxsize_14="81493" maxsize_15="101476" maxsize_16="122638" maxsize_17="121267" maxsize_18="105953" maxsize_19="95203" maxsize_20="87445" meta_levels="0 13" meta_region="13 5123 1904 9 12" meta_zmax="16 20" name="Omaha" priority="0" radius="29491.4" region="188" version="1014" />
<trigger altitude="-103.3" latitude="0.744967881976" level="13" longitude="0.051048477283" max_level="20" maxsize_13="52140" maxsize_14="47811" maxsize_15="86195" maxsize_16="107343" maxsize_17="96944" maxsize_18="93890" maxsize_19="89728" maxsize_20="89732" meta_levels="0 13" meta_region="13 5169 4159 6 7" meta_zmax="16 20" name="Perpignan" priority="0" radius="16947.9" region="190" version="1009" />
<trigger altitude="-217.6" latitude="0.705385895832" level="13" longitude="-1.397302426957" max_level="20" maxsize_13="87821" maxsize_14="94427" maxsize_15="101602" maxsize_16="126701" maxsize_17="122449" maxsize_18="115994" maxsize_19="108695" maxsize_20="101460" meta_levels="0 13" meta_region="13 5097 2267 12 14" meta_zmax="16 20" name="Pittsburgh" priority="0" radius="36372.0" region="191" version="1014" />
<trigger altitude="2099.1" latitude="0.331977166023" level="13" longitude="-1.714226987779" max_level="20" maxsize_13="64278" maxsize_14="87381" maxsize_15="103873" maxsize_16="118231" maxsize_17="126282" maxsize_18="124720" maxsize_19="111838" maxsize_20="119841" meta_levels="0 13" meta_region="13 4533 1857 8 8" meta_zmax="16 20" name="Puebla" priority="0" radius="26734.8" region="192" version="1008" />
<trigger altitude="-1297.0" latitude="0.562738454079" level="13" longitude="-1.935666512291" max_level="20" maxsize_13="66890" maxsize_14="76734" maxsize_15="88887" maxsize_16="103560" maxsize_17="102753" maxsize_18="101638" maxsize_19="94069" maxsize_20="78742" meta_levels="0 13" meta_region="13 4866 1566 11 12" meta_zmax="16 20" name="Tucson" priority="0" radius="35418.7" region="194" version="1004" />
<trigger altitude="6499.9" latitude="0.657832157953" level="13" longitude="-2.082630363816" max_level="20" maxsize_13="179486" maxsize_14="159581" maxsize_15="163694" maxsize_16="144971" maxsize_17="168930" maxsize_18="145319" maxsize_19="125327" maxsize_20="108734" meta_levels="0 13" meta_region="13 5017 1366 14 28" meta_zmax="16 20" name="Yosemite" priority="0" radius="62902.2" region="195" version="1006" />
<trigger altitude="-468.5" latitude="0.436813579159" level="13" longitude="-1.351037272883" max_level="20" maxsize_13="51205" maxsize_14="53896" maxsize_15="82163" maxsize_16="95816" maxsize_17="105482" maxsize_18="104317" maxsize_19="101724" maxsize_20="117597" name="Nassau" priority="0" radius="23443.4" region="196" version="1004" />
<trigger altitude="118.4" latitude="-0.521466502723" level="13" longitude="0.541096522052" max_level="20" maxsize_13="77631" maxsize_14="90715" maxsize_15="96043" maxsize_16="115214" maxsize_17="111123" maxsize_18="109025" maxsize_19="102352" maxsize_20="90558" meta_levels="0 13" meta_region="13 3378 4798 10 7" meta_zmax="16 20" name="Durban" priority="0" radius="27296.6" region="197" version="1010" />
<trigger altitude="-327.4" latitude="0.705396198176" level="13" longitude="0.261952073187" max_level="20" maxsize_13="58186" maxsize_14="40480" maxsize_15="53093" maxsize_16="59764" maxsize_17="88137" maxsize_18="81402" maxsize_19="76084" maxsize_20="79029" name="Paestum" priority="0" radius="7554.4" region="198" version="1006" />
<trigger altitude="7613.2" latitude="0.666250887696" level="13" longitude="-1.918839551365" max_level="20" maxsize_13="110360" maxsize_14="117119" maxsize_15="134545" maxsize_16="126254" maxsize_17="145504" maxsize_18="136533" maxsize_19="119844" maxsize_20="101591" meta_levels="0 13" meta_region="13 5019 1576 39 33" meta_zmax="16 20" name="Arches" priority="0" radius="98652.6" region="200" version="1009" />
<trigger altitude="87.7" latitude="0.768922399848" level="13" longitude="0.084369221174" max_level="20" maxsize_13="32374" maxsize_14="37990" maxsize_15="43130" maxsize_16="97707" maxsize_17="92437" maxsize_18="84421" maxsize_19="90734" maxsize_20="92469" meta_levels="0 13" meta_region="13 5214 4205 2 2" meta_zmax="16 20" name="Chateauneuf du pape" priority="0" radius="5364.0" region="201" version="1002" />
<trigger altitude="110.2" latitude="0.831142727179" level="13" longitude="0.026461984081" max_level="20" maxsize_13="45677" maxsize_14="50381" maxsize_15="87094" maxsize_16="123948" maxsize_17="112031" maxsize_18="99658" maxsize_19="95934" maxsize_20="91218" meta_levels="0 13" meta_region="13 5330 4129 3 3" meta_zmax="16 20" name="chambord" priority="0" radius="7235.5" region="202" version="1007" />
<trigger altitude="166.0" latitude="0.767251060912" level="13" longitude="0.079402522170" max_level="20" maxsize_13="41247" maxsize_14="56150" maxsize_15="55665" maxsize_16="100289" maxsize_17="98708" maxsize_18="96345" maxsize_19="95618" maxsize_20="85391" meta_levels="0 13" meta_region="13 5210 4198 4 3" meta_zmax="16 20" name="remoulins" priority="0" radius="9220.7" region="203" version="1004" />
<trigger altitude="2417.9" latitude="-0.609533596360" level="13" longitude="2.418444653842" max_level="20" maxsize_13="70257" maxsize_14="87111" maxsize_15="99868" maxsize_16="109703" maxsize_17="115603" maxsize_18="119442" maxsize_19="103467" maxsize_20="92570" meta_levels="0 13" meta_region="13 3238 7246 17 8" meta_zmax="16 20" name="Adelaide" priority="0" radius="40943.2" region="204" version="1017" />
<trigger altitude="38.9" latitude="0.848800924736" level="13" longitude="-0.026462987914" max_level="20" maxsize_13="35912" maxsize_14="32666" maxsize_15="32389" maxsize_16="50225" maxsize_17="70611" maxsize_18="64703" maxsize_19="70731" maxsize_20="72258" meta_levels="0 13" meta_region="13 5364 4059 4 5" meta_zmax="16 20" name="Mont Saint Michel" priority="0" radius="10643.8" region="205" version="1008" />
<trigger altitude="1604.9" latitude="0.611388606466" level="13" longitude="-1.937417772739" max_level="20" maxsize_13="25604" maxsize_14="31118" maxsize_15="34501" maxsize_16="40899" maxsize_17="57099" maxsize_18="71140" maxsize_19="85308" maxsize_20="73179" name="meteor_crater" priority="0" radius="6800.3" region="206" version="1001" />
<trigger altitude="937.9" latitude="0.778299576225" level="13" longitude="-1.827353157709" max_level="20" maxsize_13="47233" maxsize_14="63130" maxsize_15="76269" maxsize_16="109337" maxsize_17="116714" maxsize_18="107826" maxsize_19="105664" maxsize_20="92239" name="Devils Tower" priority="0" radius="7231.7" region="207" version="1001" />
<trigger altitude="918.5" latitude="0.628600619007" level="13" longitude="-1.985777371304" max_level="20" maxsize_13="78436" maxsize_14="77417" maxsize_15="76888" maxsize_16="85524" maxsize_17="98621" maxsize_18="86426" maxsize_19="84487" maxsize_20="79352" name="grand canyon" priority="0" radius="18812.8" region="208" version="1003" />
<trigger altitude="-432.6" latitude="0.980249152952" level="13" longitude="0.177753872077" max_level="20" maxsize_13="36866" maxsize_14="44776" maxsize_15="51457" maxsize_16="75370" maxsize_17="75765" maxsize_18="72151" maxsize_19="75226" maxsize_20="72410" name="Aarhus" priority="0" radius="16636.2" region="210" version="1002" />
<trigger altitude="-158.8" latitude="0.709172202913" level="13" longitude="-1.315629996095" max_level="20" maxsize_13="88553" maxsize_14="101566" maxsize_15="106174" maxsize_16="108674" maxsize_17="128220" maxsize_18="119692" maxsize_19="101212" maxsize_20="109878" meta_levels="0 13" meta_region="13 5105 2374 9 14" meta_zmax="16 20" name="Allentown" priority="0" radius="33741.6" region="213" version="1005" />
<trigger altitude="-546.6" latitude="0.614578003316" level="13" longitude="-1.777317151876" max_level="20" maxsize_13="39626" maxsize_14="48509" maxsize_15="64733" maxsize_16="81208" maxsize_17="85972" maxsize_18="94210" maxsize_19="86549" maxsize_20="73397" meta_levels="0 13" meta_region="13 4949 1775 8 8" meta_zmax="16 20" name="Amarillo" priority="0" radius="23943.4" region="214" version="1003" />
<trigger altitude="50.1" latitude="0.828293336119" level="13" longitude="-0.009591102924" max_level="20" maxsize_13="39684" maxsize_14="48609" maxsize_15="82923" maxsize_16="99174" maxsize_17="102725" maxsize_18="98135" maxsize_19="88814" maxsize_20="81459" meta_levels="0 13" meta_region="13 5323 4079 6 9" meta_zmax="16 20" name="Angers" priority="0" radius="18091.7" region="215" version="1008" />
<trigger altitude="-92.0" latitude="0.893253487784" level="13" longitude="0.077104420377" max_level="20" maxsize_13="45058" maxsize_14="70791" maxsize_15="86998" maxsize_16="89432" maxsize_17="124275" maxsize_18="80859" maxsize_19="78222" maxsize_20="79338" name="Antwerp" priority="0" radius="32206.5" region="216" version="1003" />
<trigger altitude="-1488.5" latitude="0.321520111562" level="13" longitude="-1.165489715194" max_level="20" maxsize_13="73849" maxsize_14="91979" maxsize_15="100220" maxsize_16="104973" maxsize_17="117693" maxsize_18="121776" maxsize_19="118541" maxsize_20="118728" name="Arecibo" priority="0" radius="17158.8" region="217" version="1004" />
<trigger altitude="127.5" latitude="0.830165205961" level="13" longitude="0.133739999191" max_level="20" maxsize_13="54412" maxsize_14="102180" maxsize_15="100446" maxsize_16="101082" maxsize_17="161550" maxsize_18="114393" maxsize_19="95740" maxsize_20="99133" name="Basle" priority="0" radius="25116.5" region="218" version="1002" />
<trigger altitude="310.2" latitude="0.824395836255" level="13" longitude="0.104695165695" max_level="20" maxsize_13="48331" maxsize_14="76697" maxsize_15="104626" maxsize_16="97473" maxsize_17="90219" maxsize_18="78140" maxsize_19="79883" maxsize_20="79343" meta_levels="0 13" meta_region="13 5314 4227 9 11" meta_zmax="16 20" name="Besancon" priority="0" radius="24142.9" region="219" version="1003" />
<trigger altitude="-107.1" latitude="0.939466123412" level="13" longitude="-0.051441446427" max_level="20" maxsize_13="32149" maxsize_14="30153" maxsize_15="41647" maxsize_16="58537" maxsize_17="72324" maxsize_18="65749" maxsize_19="64367" maxsize_20="64945" meta_levels="0 13" meta_region="13 5550 4026 10 6" meta_zmax="16 20" name="Blackpool" priority="0" radius="17293.9" region="221" version="1008" />
<trigger altitude="-231.4" latitude="0.725083017350" level="13" longitude="-0.146895662530" max_level="20" maxsize_13="109915" maxsize_14="89982" maxsize_15="95850" maxsize_16="100936" maxsize_17="103638" maxsize_18="102388" maxsize_19="90350" maxsize_20="85517" meta_levels="0 13" meta_region="13 5134 3902 6 5" meta_zmax="16 20" name="Braga" priority="0" radius="15453.1" region="224" version="1007" />
<trigger altitude="550.3" latitude="0.926549989206" level="13" longitude="0.153415703918" max_level="20" maxsize_13="42680" maxsize_14="69804" maxsize_15="84617" maxsize_16="93993" maxsize_17="84558" maxsize_18="84354" maxsize_19="85287" maxsize_20="75727" meta_levels="0 13" meta_region="13 5523 4291 8 10" meta_zmax="16 20" name="Bremen" priority="0" radius="19751.5" region="225" version="1005" />
<trigger altitude="131.7" latitude="0.858387140049" level="13" longitude="0.290015419122" max_level="20" maxsize_13="58174" maxsize_14="103551" maxsize_15="99435" maxsize_16="120188" maxsize_17="112759" maxsize_18="109795" maxsize_19="97740" maxsize_20="91421" meta_levels="0 13" meta_region="13 5381 4470 8 8" meta_zmax="16 20" name="Brno" priority="0" radius="19749.3" region="226" version="1009" />
<trigger altitude="0.3" latitude="0.887694189130" level="13" longitude="0.076680663717" max_level="20" maxsize_13="88950" maxsize_14="102138" maxsize_15="101495" maxsize_16="121265" maxsize_17="108405" maxsize_18="108005" maxsize_19="101431" maxsize_20="96076" meta_levels="0 13" meta_region="13 5440 4191 9 10" meta_zmax="16 20" name="Brussels" priority="0" radius="21500.9" region="227" version="1012" />
<trigger altitude="2.8" latitude="0.637818175364" level="13" longitude="-0.107449771491" max_level="20" maxsize_13="67178" maxsize_14="81568" maxsize_15="101872" maxsize_16="116790" maxsize_17="114820" maxsize_18="112785" maxsize_19="95666" maxsize_20="84208" meta_levels="0 13" meta_region="13 4983 3951 15 10" meta_zmax="16 20" name="Cadiz" priority="0" radius="35378.2" region="228" version="1027" />
<trigger altitude="107.6" latitude="0.681760350008" level="13" longitude="-1.475753876131" max_level="20" maxsize_13="111199" maxsize_14="128785" maxsize_15="119269" maxsize_16="104568" maxsize_17="108236" maxsize_18="100798" maxsize_19="90020" maxsize_20="95327" meta_levels="0 13" meta_region="13 5059 2167 8 10" meta_zmax="16 20" name="Cincinnati" priority="0" radius="25538.4" region="229" version="1018" />
<trigger altitude="151.1" latitude="0.701842489421" level="13" longitude="-0.147264464653" max_level="20" maxsize_13="61432" maxsize_14="74938" maxsize_15="100137" maxsize_16="110671" maxsize_17="113206" maxsize_18="111019" maxsize_19="100522" maxsize_20="87043" meta_levels="0 13" meta_region="13 5095 3902 4 4" meta_zmax="16 20" name="Coimbra" priority="0" radius="11663.2" region="230" version="1010" />
<trigger altitude="-371.7" latitude="1.005573730389" level="13" longitude="0.319235800763" max_level="20" maxsize_13="35525" maxsize_14="35147" maxsize_15="48126" maxsize_16="72236" maxsize_17="87279" maxsize_18="75449" maxsize_19="74488" maxsize_20="73565" name="Visby" priority="0" radius="15116.1" region="231" version="1004" />
<trigger altitude="-8.8" latitude="0.882840592195" level="13" longitude="0.052512314481" max_level="20" maxsize_13="50621" maxsize_14="80505" maxsize_15="80456" maxsize_16="95550" maxsize_17="88025" maxsize_18="87902" maxsize_19="82164" maxsize_20="70519" meta_levels="0 13" meta_region="13 5427 4157 15 15" meta_zmax="16 20" name="Lens - Lille" priority="0" radius="33371.6" region="235" version="1002" />
<trigger altitude="-3.1" latitude="-0.674590528797" level="13" longitude="2.496936202837" max_level="20" maxsize_13="34809" maxsize_14="42412" maxsize_15="47918" maxsize_16="90784" maxsize_17="93772" maxsize_18="83419" maxsize_19="73206" maxsize_20="64408" meta_levels="0 13" meta_region="13 3139 7349 4 5" meta_zmax="16 20" name="Apostles" priority="0" radius="14443.1" region="236" version="1003" />
<trigger altitude="-167.0" latitude="0.898790687025" level="13" longitude="-0.054475474933" max_level="20" maxsize_13="46104" maxsize_14="47839" maxsize_15="55315" maxsize_16="96437" maxsize_17="95179" maxsize_18="95976" maxsize_19="87738" maxsize_20="79449" meta_levels="0 13" meta_region="13 5462 4017 11 16" meta_zmax="16 20" name="cardiff" priority="0" radius="30050.0" region="238" version="1004" />
<trigger altitude="242.8" latitude="0.600330804180" level="13" longitude="2.288640434371" max_level="20" maxsize_13="58966" maxsize_14="62305" maxsize_15="78992" maxsize_16="99814" maxsize_17="104224" maxsize_18="102075" maxsize_19="97040" maxsize_20="96962" meta_levels="0 13" meta_region="13 4928 7072 5 15" meta_zmax="16 20" name="Yamaguchi" priority="0" radius="34378.3" region="239" version="1014" />
<trigger altitude="-64.0" latitude="0.618603856494" level="13" longitude="2.320907916812" max_level="20" maxsize_13="60544" maxsize_14="73476" maxsize_15="86381" maxsize_16="105886" maxsize_17="119095" maxsize_18="109059" maxsize_19="98502" maxsize_20="92078" meta_levels="0 13" meta_region="13 4956 7114 7 16" meta_zmax="16 20" name="Shimane" priority="0" radius="37606.3" region="245" version="1004" />
<trigger altitude="-426.9" latitude="0.615526937845" level="13" longitude="2.377942467813" max_level="20" maxsize_13="58901" maxsize_14="75778" maxsize_15="81682" maxsize_16="110658" maxsize_17="109415" maxsize_18="109025" maxsize_19="102537" maxsize_20="96173" meta_levels="0 13" meta_region="13 4953 7195 3 3" meta_zmax="16 20" name="Shiga" priority="0" radius="10288.3" region="250" version="1005" />
<trigger altitude="41.5" latitude="0.617650235517" level="13" longitude="2.353517779541" max_level="20" maxsize_13="46850" maxsize_14="46374" maxsize_15="68653" maxsize_16="101497" maxsize_17="98688" maxsize_18="93860" maxsize_19="93718" maxsize_20="84638" meta_levels="0 13" meta_region="13 4955 7163 6 3" meta_zmax="16 20" name="Hyogo" priority="0" radius="14905.4" region="253" version="1017" />
<trigger altitude="-22.0" latitude="0.638142352075" level="13" longitude="2.384343404186" max_level="20" maxsize_13="58834" maxsize_14="87337" maxsize_15="87890" maxsize_16="112946" maxsize_17="104522" maxsize_18="107156" maxsize_19="97424" maxsize_20="91960" meta_levels="0 13" meta_region="13 4989 7203 4 4" meta_zmax="16 20" name="ishikawa" priority="0" radius="13132.2" region="254" version="1003" />
<trigger altitude="111.0" latitude="0.742125586858" level="13" longitude="0.054073178629" max_level="20" maxsize_13="38389" maxsize_14="40619" maxsize_15="60848" maxsize_16="94414" maxsize_17="98318" maxsize_18="92672" maxsize_19="83576" maxsize_20="75784" meta_levels="0 13" meta_region="13 5166 4165 2 3" meta_zmax="16 20" name="Collioure" priority="0" radius="6843.0" region="255" version="1001" />
<trigger altitude="77.1" latitude="0.456832639796" level="13" longitude="2.229238479937" max_level="20" maxsize_13="76869" maxsize_14="94048" maxsize_15="108386" maxsize_16="121539" maxsize_17="109892" maxsize_18="102755" maxsize_19="95635" maxsize_20="88827" meta_levels="0 13" meta_region="13 4710 6999 7 7" meta_zmax="16 20" name="Okinawa" priority="0" radius="23033.1" region="256" version="1003" />
<trigger altitude="1142.1" latitude="-0.785819527745" level="13" longitude="2.945589952685" max_level="20" maxsize_13="66715" maxsize_14="68632" maxsize_15="83686" maxsize_16="97791" maxsize_17="99204" maxsize_18="97684" maxsize_19="90668" maxsize_20="78449" meta_levels="0 13" meta_region="13 2942 7932 8 9" meta_zmax="16 20" name="queenstown" priority="0" radius="21886.3" region="257" version="1002" />
<trigger altitude="58.3" latitude="0.601936838731" level="13" longitude="2.327814737150" max_level="20" maxsize_13="49856" maxsize_14="74812" maxsize_15="84697" maxsize_16="97751" maxsize_17="91890" maxsize_18="89895" maxsize_19="84091" maxsize_20="76106" meta_levels="0 13" meta_region="13 4932 7130 2 2" meta_zmax="16 20" name="Fukuyama" priority="0" radius="7267.3" region="258" version="1002" />
<trigger altitude="542.0" latitude="0.632284366544" level="13" longitude="2.407943374729" max_level="20" maxsize_13="54851" maxsize_14="57557" maxsize_15="99069" maxsize_16="113466" maxsize_17="105795" maxsize_18="105742" maxsize_19="97020" maxsize_20="88968" meta_levels="0 13" meta_region="13 4980 7234 3 3" meta_zmax="16 20" name="Matsumoto" priority="0" radius="10827.5" region="259" version="1001" />
<trigger altitude="1129.7" latitude="0.612382080913" level="13" longitude="-1.860394209609" max_level="20" maxsize_13="47576" maxsize_14="60604" maxsize_15="83721" maxsize_16="95178" maxsize_17="97579" maxsize_18="91355" maxsize_19="91162" maxsize_20="78816" meta_levels="0 13" meta_region="13 4946 1667 7 7" meta_zmax="16 20" name="Albuquerque" priority="0" radius="21954.3" region="260" version="1001" />
<trigger altitude="224.7" latitude="0.654363855582" level="13" longitude="2.442096762779" max_level="20" maxsize_13="39589" maxsize_14="54825" maxsize_15="74497" maxsize_16="106298" maxsize_17="94763" maxsize_18="84583" maxsize_19="77036" maxsize_20="62748" meta_levels="0 13" meta_region="13 5016 7279 3 2" meta_zmax="16 20" name="aizuwakamatsu" priority="0" radius="8857.5" region="261" version="1001" />
<trigger altitude="505.4" latitude="0.698247019611" level="13" longitude="-1.448015466510" max_level="20" maxsize_13="56749" maxsize_14="86560" maxsize_15="108116" maxsize_16="107439" maxsize_17="119322" maxsize_18="108966" maxsize_19="104647" maxsize_20="110204" meta_levels="0 13" meta_region="13 5083 2202 16 12" meta_zmax="16 20" name="Columbus" priority="0" radius="39039.8" region="301" version="1007" />
<trigger altitude="-2364.5" latitude="0.739620058390" level="13" longitude="-1.454068066997" max_level="20" maxsize_13="62027" maxsize_14="96156" maxsize_15="111659" maxsize_16="110450" maxsize_17="116394" maxsize_18="107275" maxsize_19="95204" maxsize_20="100524" meta_levels="0 13" meta_region="13 5150 2187 24 26" meta_zmax="16 20" name="Detroit" priority="0" radius="65313.6" region="302" version="1004" />
<trigger altitude="290.8" latitude="0.825704073648" level="13" longitude="0.088566918837" max_level="20" maxsize_13="43110" maxsize_14="54890" maxsize_15="91162" maxsize_16="109489" maxsize_17="114986" maxsize_18="106116" maxsize_19="105738" maxsize_20="101053" meta_levels="0 13" meta_region="13 5318 4208 6 7" meta_zmax="16 20" name="Dijon" priority="0" radius="16159.8" region="303" version="1003" />
<trigger altitude="249.7" latitude="0.976873906630" level="13" longitude="-0.056808240179" max_level="20" maxsize_13="46137" maxsize_14="58210" maxsize_15="79945" maxsize_16="90006" maxsize_17="95379" maxsize_18="90930" maxsize_19="87994" maxsize_20="75488" meta_levels="0 13" meta_region="13 5636 4017 8 10" meta_zmax="16 20" name="Edinburgh" priority="0" radius="17898.2" region="307" version="1004" />
<trigger altitude="83.4" latitude="0.897789371801" level="13" longitude="0.096908398095" max_level="20" maxsize_13="61088" maxsize_14="70307" maxsize_15="93409" maxsize_16="92948" maxsize_17="99607" maxsize_18="86706" maxsize_19="83699" maxsize_20="89825" meta_levels="0 13" meta_region="13 5461 4217 9 11" meta_zmax="16 20" name="Eindhoven" priority="0" radius="22560.9" region="308" version="1004" />
<trigger altitude="227.7" latitude="0.765281465271" level="13" longitude="0.193660917115" max_level="20" maxsize_13="56036" maxsize_14="97564" maxsize_15="103367" maxsize_16="117553" maxsize_17="124566" maxsize_18="114961" maxsize_19="106375" maxsize_20="82347" meta_levels="0 13" meta_region="13 5202 4341 13 15" meta_zmax="16 20" name="Florence" priority="0" radius="35098.4" region="310" version="1001" />
<trigger altitude="-270.8" latitude="0.430183147605" level="13" longitude="-1.419724905068" max_level="20" maxsize_13="36953" maxsize_14="56031" maxsize_15="75052" maxsize_16="112483" maxsize_17="116382" maxsize_18="109291" maxsize_19="100666" maxsize_20="88119" meta_levels="0 13" meta_region="13 4670 2233 10 24" meta_zmax="16 20" name="Florida Keys" priority="0" radius="58819.0" region="311" version="1001" />
<trigger altitude="-7162.5" latitude="0.464912876392" level="13" longitude="-1.365733662752" max_level="20" maxsize_13="59776" maxsize_14="63278" maxsize_15="83138" maxsize_16="97416" maxsize_17="115648" maxsize_18="112513" maxsize_19="107125" maxsize_20="110042" meta_levels="0 13" meta_region="13 4710 2296 29 37" meta_zmax="16 20" name="Freeport" priority="0" radius="104704.3" region="312" version="1012" />
<trigger altitude="-313.1" latitude="0.891611755663" level="13" longitude="0.065467709234" max_level="20" maxsize_13="51548" maxsize_14="57640" maxsize_15="85020" maxsize_16="109673" maxsize_17="102111" maxsize_18="95827" maxsize_19="83395" maxsize_20="78617" meta_levels="0 13" meta_region="13 5446 4178 13 7" meta_zmax="16 20" name="Ghent" priority="0" radius="22998.7" region="314" version="1007" />
<trigger altitude="460.8" latitude="0.758625312604" level="13" longitude="-0.100142729226" max_level="20" maxsize_13="68568" maxsize_14="116456" maxsize_15="109856" maxsize_16="100752" maxsize_17="114196" maxsize_18="103883" maxsize_19="93760" maxsize_20="99824" meta_levels="0 13" meta_region="13 5192 3960 9 11" meta_zmax="16 20" name="Gijon" priority="0" radius="26336.1" region="315" version="1015" />
<trigger altitude="277.1" latitude="1.006858898360" level="13" longitude="0.208850922581" max_level="20" maxsize_13="41197" maxsize_14="57074" maxsize_15="88579" maxsize_16="92211" maxsize_17="149939" maxsize_18="117569" maxsize_19="92428" maxsize_20="93775" name="Gothenburg" priority="0" radius="32159.2" region="316" version="1002" />
<trigger altitude="936.5" latitude="0.749040317847" level="13" longitude="-1.498714545281" max_level="20" maxsize_13="73352" maxsize_14="99718" maxsize_15="106461" maxsize_16="108584" maxsize_17="111938" maxsize_18="104119" maxsize_19="100368" maxsize_20="120833" meta_levels="0 13" meta_region="13 5173 2132 13 20" meta_zmax="16 20" name="Grand Rapids" priority="0" radius="43951.6" region="317" version="1007" />
<trigger altitude="1145.7" latitude="0.360125363026" level="13" longitude="-1.804806019300" max_level="20" maxsize_13="96733" maxsize_14="116099" maxsize_15="121172" maxsize_16="128091" maxsize_17="155393" maxsize_18="134770" maxsize_19="117307" maxsize_20="117619" name="Guadalajara" priority="0" radius="33627.4" region="318" version="1004" />
<trigger altitude="-656.0" latitude="0.487289505260" level="13" longitude="-1.935095685351" max_level="20" maxsize_13="57067" maxsize_14="55419" maxsize_15="78446" maxsize_16="103919" maxsize_17="97629" maxsize_18="86602" maxsize_19="79931" maxsize_20="89301" meta_levels="0 13" meta_region="13 4755 1570 6 6" meta_zmax="16 20" name="Guaymas" priority="0" radius="19258.9" region="319" version="1010" />
<trigger altitude="83.2" latitude="0.934425207655" level="13" longitude="0.174438642278" max_level="20" maxsize_13="58826" maxsize_14="79646" maxsize_15="81967" maxsize_16="130179" maxsize_17="117594" maxsize_18="107192" maxsize_19="98978" maxsize_20="89642" meta_levels="0 13" meta_region="13 5537 4315 14 17" meta_zmax="16 20" name="Hamburg" priority="0" radius="34162.9" region="321" version="1004" />
<trigger altitude="-397.9" latitude="0.914216240462" level="13" longitude="0.169930775754" max_level="20" maxsize_13="55646" maxsize_14="82441" maxsize_15="88545" maxsize_16="110265" maxsize_17="116349" maxsize_18="104043" maxsize_19="96798" maxsize_20="89633" meta_levels="0 13" meta_region="13 5495 4313 10 9" meta_zmax="16 20" name="Hanover" priority="0" radius="22240.4" region="322" version="1006" />
